[
  {
    "id": "18161",
    "nome": "GRANDE BLOCO DO ENCONTRO - PARQUE JA",
    "data": "2026-01-31",
    "horario": "09:00",
    "endereco": "PRACA APA, 703",
    "bairro": "Jardim América",
    "observacoes": "Carnaval 2026",
    "latitude": -19.944791,
    "longitude": -43.9732374
  },
  {
    "id": "18013",
    "nome": "BURITIS DE GUIMARÃES ROSA",
    "data": "2026-01-31",
    "horario": "09:30",
    "endereco": "RUA JUVENAL MELO SENRA, 385",
    "bairro": "Belvedere",
    "observacoes": "Carnaval 2026",
    "latitude": -19.9730961,
    "longitude": -43.9396785
  },
  {
    "id": "18973",
    "nome": "BLOCO DA FLORESTA",
    "data": "2026-01-31",
    "horario": "09:30",
    "endereco": "RUA DEPUTADO BERNARDINO DE SENA FIGUEIREDO, 961",
    "bairro": "Cidade Nova",
    "observacoes": "Carnaval 2026",
    "latitude": -19.8874701,
    "longitude": -43.9242173
  },
  {
    "id": "18495",
    "nome": "VAI DÁ NÃO, BACANA! ",
    "data": "2026-01-31",
    "horario": "10:00",
    "endereco": "RUA JOAO DE FREITAS, 122",
    "bairro": "Santo Antônio",
    "observacoes": "Carnaval 2026",
    "latitude": -19.9406512,
    "longitude": -43.9450166
  },
  {
    "id": "18070",
    "nome": "TREMA NA LINGUIÇA",
    "data": "2026-01-31",
    "horario": "11:00",
    "endereco": "RUA BENVINDA DE CARVALHO, 320",
    "bairro": "Santo Antônio",
    "observacoes": "Carnaval 2026",
    "latitude": -19.9416017,
    "longitude": -43.9396022
  },
  {
    "id": "19065",
    "nome": "BLOCO BELOPIRÔ",
    "data": "2026-01-31",
    "horario": "11:00",
    "endereco": "ALAMEDA DAS PALMEIRAS, 921",
    "bairro": "São José",
    "observacoes": "Carnaval 2026",
    "latitude": -20.2523437,
    "longitude": -43.7895008
  },
  {
    "id": "18160",
    "nome": "CALMA MOÇA",
    "data": "2026-01-31",
    "horario": "11:00",
    "endereco": "RUA HERCULANO DE FREITAS, 895",
    "bairro": "Gutierrez",
    "observacoes": "Carnaval 2026",
    "latitude": -19.9342404,
    "longitude": -43.9551726
  },
  {
    "id": "19253",
    "nome": "PATA DE LEÃO ",
    "data": "2026-01-31",
    "horario": "12:00",
    "endereco": "PRACA MEXICO, 249",
    "bairro": "Concórdia",
    "observacoes": "Carnaval 2026",
    "latitude": -19.9020498,
    "longitude": -43.9358187
  },
  {
    "id": "19150",
    "nome": "CARNACOELHO",
    "data": "2026-01-31",
    "horario": "12:00",
    "endereco": "RUA MARMORE, 210",
    "bairro": "Santa Tereza",
    "observacoes": "Carnaval 2026",
    "latitude": -19.9162948,
    "longitude": -43.9182816
  },
  {
    "id": "17992",
    "nome": "BLOCO TAPA DE MINA ",
    "data": "2026-01-31",
    "horario": "13:00",
    "endereco": "RUA MARIA CARMEM VALADARES, 194",
    "bairro": "Santa Efigênia",
    "observacoes": "Carnaval 2026",
    "latitude": -19.9284953,
    "longitude": -43.9102309
  },
  {
    "id": "19283",
    "nome": "BLOQUINHO",
    "data": "2026-01-31",
    "horario": "13:00",
    "endereco": "RUA OESTE, 650",
    "bairro": "Calafate",
    "observacoes": "Carnaval 2026",
    "latitude": -19.9217945,
    "longitude": -43.9677897
  },
  {
    "id": "18554",
    "nome": "SURTABLOCO",
    "data": "2026-01-31",
    "horario": "13:00",
    "endereco": "PRACA TOSCANA, 744",
    "bairro": "Bandeirantes",
    "observacoes": "Carnaval 2026",
    "latitude": -19.8607471,
    "longitude": -43.9875519
  },
  {
    "id": "18670",
    "nome": "BLOCO PÉ COM PÉ",
    "data": "2026-01-31",
    "horario": "13:30",
    "endereco": "PRACA CHICO PEREIRA, 94",
    "bairro": "Dom Cabral",
    "observacoes": "Carnaval 2026",
    "latitude": -19.922023,
    "longitude": -43.9981517
  },
  {
    "id": "19118",
    "nome": "BLOCO DO BARRÃO ",
    "data": "2026-01-31",
    "horario": "14:00",
    "endereco": "RUA DONA SENHORINHA, 133",
    "bairro": "Boa Vista",
    "observacoes": "Carnaval 2026",
    "latitude": -19.8931676,
    "longitude": -43.9033168
  },
  {
    "id": "18130",
    "nome": "BLOCO DO MOVAT",
    "data": "2026-01-31",
    "horario": "14:00",
    "endereco": "AVENIDA AMAZONAS, 339",
    "bairro": "Centro",
    "observacoes": "Carnaval 2026",
    "latitude": -19.9217982,
    "longitude": -43.9435892
  },
  {
    "id": "18132",
    "nome": "BLOCO DA VELHA GUARDA DO SAMBA DE BH",
    "data": "2026-01-31",
    "horario": "14:00",
    "endereco": "RUA DOS GOITACAZES, 496",
    "bairro": "Centro",
    "observacoes": "Carnaval 2026",
    "latitude": -19.9231122,
    "longitude": -43.9383184
  },
  {
    "id": "18590",
    "nome": "SAGRADA PROFANA",
    "data": "2026-01-31",
    "horario": "14:00",
    "endereco": "RUA VICENTE RISOLA, 1025",
    "bairro": "Santa Inês",
    "observacoes": "Carnaval 2026",
    "latitude": -19.8828976,
    "longitude": -43.9096206
  },
  {
    "id": "19238",
    "nome": "REAGE CORNO ",
    "data": "2026-01-31",
    "horario": "14:30",
    "endereco": "RUA JOSE SANGUINETE, 283",
    "bairro": "Vila Canto do Sabiá",
    "observacoes": "Carnaval 2026",
    "latitude": -19.824621,
    "longitude": -43.9576682
  },
  {
    "id": "18514",
    "nome": "KECHIMBA",
    "data": "2026-01-31",
    "horario": "15:00",
    "endereco": "RUA SAGARANA, 180",
    "bairro": "Santo Antônio",
    "observacoes": "Carnaval 2026",
    "latitude": -19.9422648,
    "longitude": -43.9399098
  },
  {
    "id": "18529",
    "nome": "BLOCO ZONA NORTE ",
    "data": "2026-01-31",
    "horario": "16:00",
    "endereco": "RUA CECILIA PINTO, 16",
    "bairro": "Vila Aeroporto",
    "observacoes": "Carnaval 2026",
    "latitude": -19.8480498,
    "longitude": -43.9467803
  },
  {
    "id": "18986",
    "nome": "BLOCO UAI",
    "data": "2026-01-31",
    "horario": "16:00",
    "endereco": "AVENIDA ANTONIO ABRAHAO CARAM, 1001",
    "bairro": "São Luíz",
    "observacoes": "Carnaval 2026",
    "latitude": -19.8659115,
    "longitude": -43.9710434
  },
  {
    "id": "18213",
    "nome": "KIKO LINDO O BLOCO",
    "data": "2026-01-31",
    "horario": "16:00",
    "endereco": "RUA DOS BACURAUS, 58",
    "bairro": "Campo Alegre",
    "observacoes": "Carnaval 2026",
    "latitude": -19.828563,
    "longitude": -43.9466384
  },
  {
    "id": "18729",
    "nome": "BLOCO NEGOÇADO",
    "data": "2026-02-01",
    "horario": "08:00",
    "endereco": "AVENIDA FRANCISCO SALES, 20",
    "bairro": "Floresta",
    "observacoes": "Carnaval 2026",
    "latitude": -19.9156854,
    "longitude": -43.9320181
  },
  {
    "id": "19070",
    "nome": "SARARÁ NA AVENIDA",
    "data": "2026-02-01",
    "horario": "08:00",
    "endereco": "PRACA RUI BARBOSA, 50",
    "bairro": "Centro",
    "observacoes": "Carnaval 2026",
    "latitude": -19.9193308,
    "longitude": -43.9403488
  },
  {
    "id": "18768",
    "nome": "QUERUBLOCO",
    "data": "2026-02-01",
    "horario": "08:00",
    "endereco": "RUA CORREGO DOS CARVALHOS, 285",
    "bairro": "Acaba Mundo",
    "observacoes": "Carnaval 2026",
    "latitude": -19.9246308,
    "longitude": -43.9330634
  },
  {
    "id": "19011",
    "nome": "BLOCO DAS JABUTICABAS",
    "data": "2026-02-01",
    "horario": "08:00",
    "endereco": "PRACA MEXICO, 211",
    "bairro": "Concórdia",
    "observacoes": "Carnaval 2026",
    "latitude": -19.9020498,
    "longitude": -43.9358187
  },
  {
    "id": "19052",
    "nome": "BLOCO TROVOADA",
    "data": "2026-02-01",
    "horario": "09:00",
    "endereco": "AVENIDA JOSE CANDIDO DA SILVEIRA, 1647",
    "bairro": "União",
    "observacoes": "Carnaval 2026",
    "latitude": -19.8849274,
    "longitude": -43.9171208
  },
  {
    "id": "18971",
    "nome": "BRUTA FLOR",
    "data": "2026-02-01",
    "horario": "09:00",
    "endereco": "RUA AQUILES LOBO, 15",
    "bairro": "Floresta",
    "observacoes": "Carnaval 2026",
    "latitude": -19.9201138,
    "longitude": -43.9311236
  },
  {
    "id": "18556",
    "nome": "GAROTA EU DESÇO A CALIFÓRNIA",
    "data": "2026-02-01",
    "horario": "09:00",
    "endereco": "PRACA DEPUTADO RENATO AZEREDO, 83",
    "bairro": "Sion",
    "observacoes": "Carnaval 2026",
    "latitude": -19.9571668,
    "longitude": -43.9336441
  },
  {
    "id": "19249",
    "nome": "CARNA SKATE ",
    "data": "2026-02-01",
    "horario": "09:00",
    "endereco": "RUA BRAGANCA, 4",
    "bairro": "Coqueiros",
    "observacoes": "Carnaval 2026",
    "latitude": -19.9016406,
    "longitude": -44.0239021
  },
  {
    "id": "19075",
    "nome": "MARISA AOS MONTES ",
    "data": "2026-02-01",
    "horario": "09:00",
    "endereco": "PRACA SANTA RITA, 130",
    "bairro": "Esplanada",
    "observacoes": "Carnaval 2026",
    "latitude": -19.9067648,
    "longitude": -43.9071926
  },
  {
    "id": "18959",
    "nome": "BLOCO ME SAMBA",
    "data": "2026-02-01",
    "horario": "11:00",
    "endereco": "RUA BARRA LONGA, 46",
    "bairro": "Salgado Filho",
    "observacoes": "Carnaval 2026",
    "latitude": -19.9465584,
    "longitude": -43.9832217
  },
  {
    "id": "17983",
    "nome": "BLOCO CHEIA DE MANIAS",
    "data": "2026-02-01",
    "horario": "12:30",
    "endereco": "RUA GUANABARA, 354",
    "bairro": "Concórdia",
    "observacoes": "Carnaval 2026",
    "latitude": -19.8971716,
    "longitude": -43.9362841
  },
  {
    "id": "18850",
    "nome": "TÔ DE CHICO",
    "data": "2026-02-01",
    "horario": "14:00",
    "endereco": "RUA CONSELHEIRO ROCHA, 1605",
    "bairro": "Vila Dias",
    "observacoes": "Carnaval 2026",
    "latitude": -19.9198466,
    "longitude": -43.9242317
  },
  {
    "id": "18025",
    "nome": "BRÓKIO DO XAI-XAI",
    "data": "2026-02-01",
    "horario": "14:00",
    "endereco": "RUA SERGIPE, 790",
    "bairro": "Savassi",
    "observacoes": "Carnaval 2026",
    "latitude": -19.9331245,
    "longitude": -43.937014
  },
  {
    "id": "18814",
    "nome": "BLOCO VEMKENKE ",
    "data": "2026-02-01",
    "horario": "14:00",
    "endereco": "RUA SENHOR SIMEONE, 256",
    "bairro": "Jonas Veiga",
    "observacoes": "Carnaval 2026",
    "latitude": -19.9184777,
    "longitude": -43.8946361
  },
  {
    "id": "19056",
    "nome": "BABADAN BANDA DE RUA",
    "data": "2026-02-01",
    "horario": "14:00",
    "endereco": "AVENIDA AMERICO VESPUCIO, 1947",
    "bairro": "Nova Esperança",
    "observacoes": "Carnaval 2026",
    "latitude": -19.8978669,
    "longitude": -43.9611104
  },
  {
    "id": "18281",
    "nome": "PASSISTAS SHOW BH ",
    "data": "2026-02-01",
    "horario": "14:00",
    "endereco": "RUA MINISTRO OLIVEIRA SALAZAR, 461",
    "bairro": "Santa Mônica",
    "observacoes": "Carnaval 2026",
    "latitude": -19.8237426,
    "longitude": -43.9713245
  },
  {
    "id": "19117",
    "nome": "PATANGOME MARACARTE",
    "data": "2026-02-01",
    "horario": "15:00",
    "endereco": "RUA ATALAIA, 211",
    "bairro": "Caiçaras",
    "observacoes": "Carnaval 2026",
    "latitude": -19.9044017,
    "longitude": -43.9711071
  },
  {
    "id": "18934",
    "nome": "BLOCO DOS HERMANOS",
    "data": "2026-02-01",
    "horario": "15:00",
    "endereco": "RUA DOS TABAIARES, 100",
    "bairro": "Floresta",
    "observacoes": "Carnaval 2026",
    "latitude": -19.9180301,
    "longitude": -43.9323098
  },
  {
    "id": "18530",
    "nome": "BLOCO ZONA NORTE(ZN)",
    "data": "2026-02-01",
    "horario": "16:00",
    "endereco": "RUA CECILIA PINTO, 14",
    "bairro": "Vila Aeroporto",
    "observacoes": "Carnaval 2026",
    "latitude": -19.8480498,
    "longitude": -43.9467803
  },
  {
    "id": "19119",
    "nome": "BLOCO CIDADE NOVA PIRO-LEERITA",
    "data": "2026-02-05",
    "horario": "17:00",
    "endereco": "RUA AFONSO PENA JUNIOR, 141",
    "bairro": "Cidade Nova",
    "observacoes": "Carnaval 2026",
    "latitude": -19.8913614,
    "longitude": -43.9245776
  },
  {
    "id": "18939",
    "nome": "BLOCO INSTITUTO CDDOWN (ANTIGO INSTITUTO DOWN )",
    "data": "2026-02-06",
    "horario": "12:00",
    "endereco": "RUA GENERAL EPHIGENIO RUAS SANTOS, 323",
    "bairro": "Itapoã",
    "observacoes": "Carnaval 2026",
    "latitude": -19.8407393,
    "longitude": -43.9562103
  },
  {
    "id": "18990",
    "nome": "BLOCO NA CADÊNCIA DO SAMBA ",
    "data": "2026-02-06",
    "horario": "17:30",
    "endereco": "RUA VINTE E CINCO DE AGOSTO, 399",
    "bairro": "Aparecida",
    "observacoes": "Carnaval 2026",
    "latitude": -19.8944027,
    "longitude": -43.9565162
  },
  {
    "id": "18216",
    "nome": "SE AVEXE NÃO!",
    "data": "2026-02-06",
    "horario": "18:00",
    "endereco": "PRACA GERALDO TORRES, 172",
    "bairro": "Padre Eustáquio",
    "observacoes": "Carnaval 2026",
    "latitude": -19.9189721,
    "longitude": -43.9766792
  },
  {
    "id": "19223",
    "nome": "BLOCO DO HUNGRIA",
    "data": "2026-02-06",
    "horario": "18:00",
    "endereco": "AVENIDA ANTONIO ABRAHAO CARAM, 1001",
    "bairro": "São Luíz",
    "observacoes": "Carnaval 2026",
    "latitude": -19.8659115,
    "longitude": -43.9710434
  },
  {
    "id": "18553",
    "nome": "FLOR & AMAR",
    "data": "2026-02-06",
    "horario": "18:00",
    "endereco": "AVENIDA JOAQUIM CLEMENTE, 320",
    "bairro": "Floramar",
    "observacoes": "Carnaval 2026",
    "latitude": -19.8404951,
    "longitude": -43.9328404
  },
  {
    "id": "18862",
    "nome": "ABRE-TE SÉSAMO",
    "data": "2026-02-06",
    "horario": "19:00",
    "endereco": "AVENIDA AUGUSTO DE LIMA, 1833",
    "bairro": "Barro Preto",
    "observacoes": "Carnaval 2026",
    "latitude": -19.920648,
    "longitude": -43.9534996
  },
  {
    "id": "18916",
    "nome": "VEM FLUIR",
    "data": "2026-02-07",
    "horario": "08:00",
    "endereco": "RUA SILVA JARDIM, 129",
    "bairro": "Floresta",
    "observacoes": "Carnaval 2026",
    "latitude": -19.9150461,
    "longitude": -43.9300117
  },
  {
    "id": "18742",
    "nome": "BLOCO ANDACUNFÉ",
    "data": "2026-02-07",
    "horario": "08:00",
    "endereco": "RUA OLIGISTO, 417",
    "bairro": "Santa Tereza",
    "observacoes": "Carnaval 2026",
    "latitude": -19.9113632,
    "longitude": -43.9122607
  },
  {
    "id": "18289",
    "nome": "BLOCO CLANDESTINAS",
    "data": "2026-02-07",
    "horario": "08:00",
    "endereco": "RUA AARAO REIS, 585",
    "bairro": "Centro",
    "observacoes": "Carnaval 2026",
    "latitude": -19.9153446,
    "longitude": -43.9333313
  },
  {
    "id": "19332",
    "nome": "BLOCO FERA NENÉM BH",
    "data": "2026-02-07",
    "horario": "09:00",
    "endereco": "RUA DOS DOMINICANOS, 44",
    "bairro": "Serra",
    "observacoes": "Carnaval 2026",
    "latitude": -19.947581,
    "longitude": -43.9195778
  },
  {
    "id": "19329",
    "nome": "ME RESPEITA QUE EU SOU CRIANÇA",
    "data": "2026-02-07",
    "horario": "09:00",
    "endereco": "ALAMEDA DOS JACARANDAS, 1300",
    "bairro": "São Luíz",
    "observacoes": "Carnaval 2026",
    "latitude": -19.8587703,
    "longitude": -43.9680899
  },
  {
    "id": "18652",
    "nome": "BLOQUIN DA ÁRVORE",
    "data": "2026-02-07",
    "horario": "09:00",
    "endereco": "PRACA NOVA YORK, 52",
    "bairro": "Sion",
    "observacoes": "Carnaval 2026",
    "latitude": -19.9524797,
    "longitude": -43.9328052
  },
  {
    "id": "18149",
    "nome": "BLOCO DA FAMÍLIA",
    "data": "2026-02-07",
    "horario": "09:00",
    "endereco": "RUA OUTONO, 599",
    "bairro": "Cruzeiro",
    "observacoes": "Carnaval 2026",
    "latitude": -19.9428826,
    "longitude": -43.9294365
  },
  {
    "id": "18743",
    "nome": "BLOCO DO CHIFRUDO",
    "data": "2026-02-07",
    "horario": "09:00",
    "endereco": "RUA PROGRESSO, 810",
    "bairro": "Padre Eustáquio",
    "observacoes": "Carnaval 2026",
    "latitude": -19.9143244,
    "longitude": -43.9765287
  },
  {
    "id": "19221",
    "nome": "CAPRICHOSO DE BEAGÁ",
    "data": "2026-02-07",
    "horario": "09:00",
    "endereco": "AVENIDA JOAO PINHEIRO, 467",
    "bairro": "Boa Viagem",
    "observacoes": "Carnaval 2026",
    "latitude": -19.9280392,
    "longitude": -43.9368521
  },
  {
    "id": "17984",
    "nome": "BLOCO VIBE DE VOLTÁ",
    "data": "2026-02-07",
    "horario": "09:30",
    "endereco": "AVENIDA JOSE CANDIDO DA SILVEIRA, 2000",
    "bairro": "Horto Florestal",
    "observacoes": "Carnaval 2026",
    "latitude": -19.8862313,
    "longitude": -43.9149792
  },
  {
    "id": "19023",
    "nome": "BELEZA RARA",
    "data": "2026-02-07",
    "horario": "09:30",
    "endereco": "RUA ZUZU ANGEL, 356",
    "bairro": "Belvedere",
    "observacoes": "Carnaval 2026",
    "latitude": -19.9704393,
    "longitude": -43.937607
  },
  {
    "id": "18157",
    "nome": "LÁ DO BACURAUS : BONECOS GIGANTES RECICLADOS",
    "data": "2026-02-07",
    "horario": "10:00",
    "endereco": "RUA ADOLFO LUTZ, 21",
    "bairro": "Campo Alegre",
    "observacoes": "Carnaval 2026",
    "latitude": -19.8315241,
    "longitude": -43.9489658
  },
  {
    "id": "18592",
    "nome": "UAI CÊ SAMBA",
    "data": "2026-02-07",
    "horario": "10:00",
    "endereco": "AVENIDA DOS ENGENHEIROS, 211",
    "bairro": "Alípio de Melo",
    "observacoes": "Carnaval 2026",
    "latitude": -19.8902904,
    "longitude": -44.0007213
  },
  {
    "id": "19013",
    "nome": "BLOCO DE PÍFANOS BH",
    "data": "2026-02-07",
    "horario": "10:00",
    "endereco": "RUA JEQUIRICA, 223",
    "bairro": "Concórdia",
    "observacoes": "Carnaval 2026",
    "latitude": -19.8966518,
    "longitude": -43.9381105
  },
  {
    "id": "18709",
    "nome": "ENTÃO, PLANTA!",
    "data": "2026-02-07",
    "horario": "10:00",
    "endereco": "RUA MARMORE, 169",
    "bairro": "Santa Tereza",
    "observacoes": "Carnaval 2026",
    "latitude": -19.9162948,
    "longitude": -43.9182816
  },
  {
    "id": "19022",
    "nome": "DE MENTES BRILHANTES ",
    "data": "2026-02-07",
    "horario": "10:30",
    "endereco": "RUA JOSE DOS SANTOS LAGE, 315",
    "bairro": "Teixeira Dias",
    "observacoes": "Carnaval 2026",
    "latitude": -19.9879371,
    "longitude": -44.0163845
  },
  {
    "id": "19250",
    "nome": "BANDA LINDA",
    "data": "2026-02-07",
    "horario": "11:00",
    "endereco": "RUA PINHEIROS, 1040",
    "bairro": "Nova Cachoeirinha",
    "observacoes": "Carnaval 2026",
    "latitude": -19.8873853,
    "longitude": -43.9572859
  },
  {
    "id": "18761",
    "nome": "BLOCO DO CAJADO ",
    "data": "2026-02-07",
    "horario": "12:00",
    "endereco": "RUA SILVA JARDIM, 239",
    "bairro": "Floresta",
    "observacoes": "Carnaval 2026",
    "latitude": -19.9150461,
    "longitude": -43.9300117
  },
  {
    "id": "19353",
    "nome": "SAMBA DO IMPERADOR",
    "data": "2026-02-07",
    "horario": "12:00",
    "endereco": "RUA ARTUR HAAS, 380",
    "bairro": "Jardim Montanhês",
    "observacoes": "Carnaval 2026",
    "latitude": -19.907222,
    "longitude": -43.981638
  },
  {
    "id": "18938",
    "nome": "MATILDA FUGIU",
    "data": "2026-02-07",
    "horario": "12:00",
    "endereco": "PRACA CAJURI, 146",
    "bairro": "Santa Inês",
    "observacoes": "Carnaval 2026",
    "latitude": -19.8795572,
    "longitude": -43.9108578
  },
  {
    "id": "17985",
    "nome": "BLOCO COQUISTAS DE TIA TOINHA",
    "data": "2026-02-07",
    "horario": "12:00",
    "endereco": "RUA AARAO REIS, 462",
    "bairro": "Centro",
    "observacoes": "Carnaval 2026",
    "latitude": -19.9153446,
    "longitude": -43.9333313
  },
  {
    "id": "18114",
    "nome": "ATENÇÃO CREUZEBECK",
    "data": "2026-02-07",
    "horario": "12:30",
    "endereco": "RUA OESTE, 425",
    "bairro": "Calafate",
    "observacoes": "Carnaval 2026",
    "latitude": -19.9217945,
    "longitude": -43.9677897
  },
  {
    "id": "18749",
    "nome": "BLOCO DURO",
    "data": "2026-02-07",
    "horario": "12:30",
    "endereco": "RUA ALVINOPOLIS, 460",
    "bairro": "Santa Tereza",
    "observacoes": "Carnaval 2026",
    "latitude": -19.9143435,
    "longitude": -43.9115887
  },
  {
    "id": "18975",
    "nome": "A JUSTIÇA NAO E CEGA",
    "data": "2026-02-07",
    "horario": "13:00",
    "endereco": "RUA BERNARDO GUIMARAES, 178",
    "bairro": "Funcionários",
    "observacoes": "Carnaval 2026",
    "latitude": -19.9321123,
    "longitude": -43.9283322
  },
  {
    "id": "18089",
    "nome": "BLOCO CEFET COM BANANA",
    "data": "2026-02-07",
    "horario": "13:00",
    "endereco": "AVENIDA BRASIL, 1145",
    "bairro": "Funcionários",
    "observacoes": "Carnaval 2026",
    "latitude": -19.9286205,
    "longitude": -43.9294379
  },
  {
    "id": "18451",
    "nome": "ARRASTÃO BLOCO SHOW",
    "data": "2026-02-07",
    "horario": "13:00",
    "endereco": "RUA IARA, 152",
    "bairro": "Pompéia",
    "observacoes": "Carnaval 2026",
    "latitude": -19.9165807,
    "longitude": -43.9037771
  },
  {
    "id": "18874",
    "nome": "CÓMO TE LHAMA?",
    "data": "2026-02-07",
    "horario": "13:00",
    "endereco": "RUA GOMES PEREIRA, 195",
    "bairro": "Horto Florestal",
    "observacoes": "Carnaval 2026",
    "latitude": -19.8974671,
    "longitude": -43.9071122
  },
  {
    "id": "19060",
    "nome": "BLOCO LIBERDADE E ÁGUA LIMPA",
    "data": "2026-02-07",
    "horario": "13:30",
    "endereco": "RUA JUNDIAI, 111",
    "bairro": "Concórdia",
    "observacoes": "Carnaval 2026",
    "latitude": -19.9009945,
    "longitude": -43.9416142
  },
  {
    "id": "18409",
    "nome": "SOBE ESTÊVÃO, DESCE PINTO",
    "data": "2026-02-07",
    "horario": "14:00",
    "endereco": "RUA PROFESSOR ESTEVAO PINTO, 780",
    "bairro": "Serra",
    "observacoes": "Carnaval 2026",
    "latitude": -19.9422483,
    "longitude": -43.9219898
  },
  {
    "id": "18549",
    "nome": "BLOCO TÁ CAINDO FULÔ",
    "data": "2026-02-07",
    "horario": "14:00",
    "endereco": "RUA EDSON, 397",
    "bairro": "União",
    "observacoes": "Carnaval 2026",
    "latitude": -19.8814446,
    "longitude": -43.9224236
  },
  {
    "id": "18985",
    "nome": "BLOCO DEMORÔ ",
    "data": "2026-02-07",
    "horario": "14:00",
    "endereco": "AVENIDA MAGENTA, 571",
    "bairro": "Vitória",
    "observacoes": "Carnaval 2026",
    "latitude": -19.8610828,
    "longitude": -43.8867322
  },
  {
    "id": "18979",
    "nome": "SAMBA DE RODA ILÊ ASÉ SÒPÒNNÓN",
    "data": "2026-02-07",
    "horario": "14:00",
    "endereco": "AVENIDA BIAS FORTES, 3036",
    "bairro": "Carlos Prates",
    "observacoes": "Carnaval 2026",
    "latitude": -19.9164817,
    "longitude": -43.9488854
  },
  {
    "id": "19214",
    "nome": "NÃO ERA AMOR, ERA CILADA.",
    "data": "2026-02-07",
    "horario": "14:00",
    "endereco": "RUA SERGIPE, 853",
    "bairro": "Savassi",
    "observacoes": "Carnaval 2026",
    "latitude": -19.9340218,
    "longitude": -43.9370331
  },
  {
    "id": "19202",
    "nome": "BLOCO TA MOLE MAIS É MEU",
    "data": "2026-02-07",
    "horario": "14:00",
    "endereco": "RUA DOM OSCAR ROMERO, 345",
    "bairro": "Nova Gameleira",
    "observacoes": "Carnaval 2026",
    "latitude": -19.9376407,
    "longitude": -43.9882536
  },
  {
    "id": "18589",
    "nome": "BLOCO MÁFIA AZUL",
    "data": "2026-02-07",
    "horario": "14:00",
    "endereco": "RUA DOS GUAJAJARAS, 1757",
    "bairro": "Barro Preto",
    "observacoes": "Carnaval 2026",
    "latitude": -19.9227122,
    "longitude": -43.9506308
  },
  {
    "id": "18851",
    "nome": "CABEI DE CHEGAR",
    "data": "2026-02-07",
    "horario": "14:00",
    "endereco": "RUA MATIAS CARDOSO, 53",
    "bairro": "Santo Agostinho",
    "observacoes": "Carnaval 2026",
    "latitude": -19.9325301,
    "longitude": -43.9531975
  },
  {
    "id": "18765",
    "nome": "BLOCO DO SARAIVA",
    "data": "2026-02-07",
    "horario": "14:00",
    "endereco": "RUA ATALAIA, 191",
    "bairro": "Caiçaras",
    "observacoes": "Carnaval 2026",
    "latitude": -19.9044017,
    "longitude": -43.9711071
  },
  {
    "id": "18738",
    "nome": "CARNAFATE ",
    "data": "2026-02-07",
    "horario": "14:00",
    "endereco": "RUA JOSE DE ALENCAR, 928",
    "bairro": "Nova Suissa",
    "observacoes": "Carnaval 2026",
    "latitude": -19.9317795,
    "longitude": -43.979072
  },
  {
    "id": "18852",
    "nome": "BANDULINO",
    "data": "2026-02-07",
    "horario": "14:00",
    "endereco": "RUA SERGIPE, 1060",
    "bairro": "Savassi",
    "observacoes": "Carnaval 2026",
    "latitude": -19.9357026,
    "longitude": -43.9377749
  },
  {
    "id": "18994",
    "nome": "BLOCO AXÉUAI",
    "data": "2026-02-07",
    "horario": "14:00",
    "endereco": "AVENIDA BENTO SIMAO, 685",
    "bairro": "São Bento",
    "observacoes": "Carnaval 2026",
    "latitude": -19.9593927,
    "longitude": -43.951477
  },
  {
    "id": "19014",
    "nome": "BLOCO DA NEGA",
    "data": "2026-02-07",
    "horario": "14:00",
    "endereco": "AVENIDA GETULIO VARGAS, 840",
    "bairro": "Savassi",
    "observacoes": "Carnaval 2026",
    "latitude": -19.9356201,
    "longitude": -43.9311357
  },
  {
    "id": "18000",
    "nome": "BLOCO CSH",
    "data": "2026-02-07",
    "horario": "14:00",
    "endereco": "RUA JACUI, 3862",
    "bairro": "Ipiranga",
    "observacoes": "Carnaval 2026",
    "latitude": -19.8802521,
    "longitude": -43.9317455
  },
  {
    "id": "18045",
    "nome": "TEM CHURRASCO TODO DIA",
    "data": "2026-02-07",
    "horario": "14:00",
    "endereco": "RUA JOSE CLEMENTE PEREIRA, 245",
    "bairro": "Ipiranga",
    "observacoes": "Carnaval 2026",
    "latitude": -19.882505,
    "longitude": -43.9346681
  },
  {
    "id": "18020",
    "nome": "BLOCO TÔDOIDO?",
    "data": "2026-02-07",
    "horario": "14:00",
    "endereco": "RUA HELIUM, 550",
    "bairro": "Nova Floresta",
    "observacoes": "Carnaval 2026",
    "latitude": -19.8903694,
    "longitude": -43.9323483
  },
  {
    "id": "17971",
    "nome": "BLOCO DO POVO",
    "data": "2026-02-07",
    "horario": "14:00",
    "endereco": "AVENIDA GENERAL OLIMPIO MOURAO FILHO, 333",
    "bairro": "Planalto",
    "observacoes": "Carnaval 2026",
    "latitude": -19.8324239,
    "longitude": -43.9577422
  },
  {
    "id": "18167",
    "nome": "PSYBLOQUIM",
    "data": "2026-02-07",
    "horario": "14:00",
    "endereco": "RUA BRAZOPOLIS, 112",
    "bairro": "Floresta",
    "observacoes": "Carnaval 2026",
    "latitude": -19.9191677,
    "longitude": -43.928051
  },
  {
    "id": "18282",
    "nome": "BLOCO EMORIÔ",
    "data": "2026-02-07",
    "horario": "14:00",
    "endereco": "AVENIDA DOS BANDEIRANTES, 546",
    "bairro": "Comiteco",
    "observacoes": "Carnaval 2026",
    "latitude": -19.9500496,
    "longitude": -43.9218887
  },
  {
    "id": "17994",
    "nome": "BLOCO KONTRA",
    "data": "2026-02-07",
    "horario": "14:30",
    "endereco": "RUA IBIRACI, 175",
    "bairro": "Salgado Filho",
    "observacoes": "Carnaval 2026",
    "latitude": -19.946992,
    "longitude": -43.983021
  },
  {
    "id": "18565",
    "nome": "APAETUCADA",
    "data": "2026-02-07",
    "horario": "14:30",
    "endereco": "RUA CRISTAL, 130",
    "bairro": "Santa Tereza",
    "observacoes": "Carnaval 2026",
    "latitude": -19.9177125,
    "longitude": -43.9237725
  },
  {
    "id": "17997",
    "nome": "PANTERA COR DA ROSA ",
    "data": "2026-02-07",
    "horario": "15:00",
    "endereco": "RUA PROFESSOR MILTON LAGE, 386",
    "bairro": "Bom Jesus",
    "observacoes": "Carnaval 2026",
    "latitude": -19.8973912,
    "longitude": -43.9563764
  },
  {
    "id": "19239",
    "nome": "SAMBA DAS INDOMITAS",
    "data": "2026-02-07",
    "horario": "15:00",
    "endereco": "RUA OUTONO, 524",
    "bairro": "Cruzeiro",
    "observacoes": "Carnaval 2026",
    "latitude": -19.9428826,
    "longitude": -43.9294365
  },
  {
    "id": "18190",
    "nome": "BLOCO SANTO BATUQUE",
    "data": "2026-02-07",
    "horario": "15:00",
    "endereco": "RUA CODAJAS, 706",
    "bairro": "São Gabriel",
    "observacoes": "Carnaval 2026",
    "latitude": -19.8484634,
    "longitude": -43.9158803
  },
  {
    "id": "18011",
    "nome": "JOJÔ E PALITO NA FOLIA DO CARNAVAL",
    "data": "2026-02-07",
    "horario": "15:00",
    "endereco": "RUA MARTIM DE CARVALHO, 94",
    "bairro": "Santo Agostinho",
    "observacoes": "Carnaval 2026",
    "latitude": -19.9300404,
    "longitude": -43.9526961
  },
  {
    "id": "18217",
    "nome": "BANDO DO SANTO CHICO",
    "data": "2026-02-07",
    "horario": "15:00",
    "endereco": "RUA PORTO ALEGRE, 500",
    "bairro": "Carlos Prates",
    "observacoes": "Carnaval 2026",
    "latitude": -19.9156775,
    "longitude": -43.9605451
  },
  {
    "id": "19272",
    "nome": "BLOCO DO MAMÁ 2",
    "data": "2026-02-07",
    "horario": "15:00",
    "endereco": "RUA JOSE FRANCISCO DA SILVA, 560",
    "bairro": "Maria Virgínia",
    "observacoes": "Carnaval 2026",
    "latitude": -19.8690268,
    "longitude": -43.9338379
  },
  {
    "id": "19000",
    "nome": "BLOKO MIAME BEAT LIKONEWS ",
    "data": "2026-02-07",
    "horario": "15:00",
    "endereco": "PRACA SANTUARIO SAO GERALDO, 529",
    "bairro": "São Geraldo",
    "observacoes": "Carnaval 2026",
    "latitude": -19.8979133,
    "longitude": -43.8984404
  },
  {
    "id": "18752",
    "nome": "BLOCO SUCATAS ",
    "data": "2026-02-07",
    "horario": "15:00",
    "endereco": "RUA GAROTA DE IPANEMA, 319",
    "bairro": "Etelvina Carneiro",
    "observacoes": "Carnaval 2026",
    "latitude": -19.8118855,
    "longitude": -43.9352827
  },
  {
    "id": "18291",
    "nome": "BAREBLOCO",
    "data": "2026-02-07",
    "horario": "15:30",
    "endereco": "RUA PROFESSOR JOSE SCHETTINO, 35",
    "bairro": "Letícia",
    "observacoes": "Carnaval 2026",
    "latitude": -19.8074557,
    "longitude": -43.981221
  },
  {
    "id": "18006",
    "nome": "BLOCO DO PADRECO ",
    "data": "2026-02-07",
    "horario": "15:30",
    "endereco": "RUA RIACHUELO, 1250",
    "bairro": "Padre Eustáquio",
    "observacoes": "Carnaval 2026",
    "latitude": -19.9159899,
    "longitude": -43.9760448
  },
  {
    "id": "18273",
    "nome": "PANTHERA DISCO BLOCO",
    "data": "2026-02-07",
    "horario": "16:00",
    "endereco": "RUA PADRE ROLIM, 62",
    "bairro": "Santa Efigênia",
    "observacoes": "Carnaval 2026",
    "latitude": -19.9268708,
    "longitude": -43.9283606
  },
  {
    "id": "18494",
    "nome": "BLOCO COMUNIDADE UNIDAS ",
    "data": "2026-02-07",
    "horario": "16:00",
    "endereco": "RUA VARZEA DA PALMA, 277",
    "bairro": "Santa Mônica",
    "observacoes": "Carnaval 2026",
    "latitude": -19.8236852,
    "longitude": -43.9854988
  },
  {
    "id": "18561",
    "nome": "BLOCO ZN - ILHA",
    "data": "2026-02-07",
    "horario": "16:00",
    "endereco": "VIA DE PEDESTRE PRACA DOS ESPORTES, 225",
    "bairro": "Vila Aeroporto",
    "observacoes": "Carnaval 2026",
    "latitude": -19.8472681,
    "longitude": -43.9477977
  },
  {
    "id": "19351",
    "nome": "BLOCO REBENTÃO ",
    "data": "2026-02-07",
    "horario": "16:00",
    "endereco": "PRACA SAO JOSE, 105",
    "bairro": "Parque São José",
    "observacoes": "Carnaval 2026",
    "latitude": -19.9635644,
    "longitude": -43.9795113
  },
  {
    "id": "19252",
    "nome": "RENAFOLIA",
    "data": "2026-02-07",
    "horario": "16:00",
    "endereco": "PRACA URUPES, 128",
    "bairro": "Renascença",
    "observacoes": "Carnaval 2026",
    "latitude": -19.8934221,
    "longitude": -43.9387608
  },
  {
    "id": "19007",
    "nome": "BANDA MOLE",
    "data": "2026-02-07",
    "horario": "16:00",
    "endereco": "AVENIDA AFONSO PENA, 1316",
    "bairro": "Centro",
    "observacoes": "Carnaval 2026",
    "latitude": -19.924504,
    "longitude": -43.935882
  },
  {
    "id": "18901",
    "nome": "BLOCÃO DO CACHORRÃO",
    "data": "2026-02-07",
    "horario": "16:00",
    "endereco": "RUA VICENTE RISOLA, 1506",
    "bairro": "Santa Inês",
    "observacoes": "Carnaval 2026",
    "latitude": -19.8828976,
    "longitude": -43.9096206
  },
  {
    "id": "18156",
    "nome": "AFOXÉ OGUN DE",
    "data": "2026-02-07",
    "horario": "16:00",
    "endereco": "RUA ALOISIO ARAGAO VILLAR, 370",
    "bairro": "Trevo",
    "observacoes": "Carnaval 2026",
    "latitude": -19.8352182,
    "longitude": -44.0059742
  },
  {
    "id": "18744",
    "nome": "VIADUTO CARNA TRANCE",
    "data": "2026-02-07",
    "horario": "17:00",
    "endereco": "RUA DA BAHIA, 15",
    "bairro": "Centro",
    "observacoes": "Carnaval 2026",
    "latitude": -19.9258695,
    "longitude": -43.9376996
  },
  {
    "id": "19156",
    "nome": "BLOCO DA AMANDONA",
    "data": "2026-02-08",
    "horario": "08:00",
    "endereco": "RUA SANTA RITA DURAO, 1216",
    "bairro": "Savassi",
    "observacoes": "Carnaval 2026",
    "latitude": -19.9346379,
    "longitude": -43.9339743
  },
  {
    "id": "19162",
    "nome": "PINTA TEREZINHA",
    "data": "2026-02-08",
    "horario": "08:00",
    "endereco": "RUA DIVINOPOLIS, 543",
    "bairro": "Santa Tereza",
    "observacoes": "Carnaval 2026",
    "latitude": -19.9155146,
    "longitude": -43.9118038
  },
  {
    "id": "17995",
    "nome": "BLOCO DESLUMBRADAS",
    "data": "2026-02-08",
    "horario": "09:00",
    "endereco": "AVENIDA OTACILIO NEGRAO DE LIMA, 4411",
    "bairro": "Bandeirantes",
    "observacoes": "Carnaval 2026",
    "latitude": -19.8534011,
    "longitude": -43.981546
  },
  {
    "id": "18891",
    "nome": "AS CHARANGUEIRAS",
    "data": "2026-02-08",
    "horario": "09:00",
    "endereco": "RUA PARAIBA, 1360",
    "bairro": "Savassi",
    "observacoes": "Carnaval 2026",
    "latitude": -19.9346653,
    "longitude": -43.9332375
  },
  {
    "id": "19352",
    "nome": "BLOCO COWBOY DI BUTECO",
    "data": "2026-02-08",
    "horario": "09:00",
    "endereco": "PRACA DA LIBERDADE, 65",
    "bairro": "Savassi",
    "observacoes": "Carnaval 2026",
    "latitude": -19.9318363,
    "longitude": -43.9386702
  },
  {
    "id": "19049",
    "nome": "BLOQUINHO 60+ PAIXÃO DE CARNAVAL - SAI DA FRENTE QUE EU DANÇO LENTO",
    "data": "2026-02-08",
    "horario": "09:00",
    "endereco": "RUA SIDONIA, 206",
    "bairro": "São Salvador",
    "observacoes": "Carnaval 2026",
    "latitude": -19.892467,
    "longitude": -44.0149214
  },
  {
    "id": "18813",
    "nome": "BLOCO DO BALÃO",
    "data": "2026-02-08",
    "horario": "09:00",
    "endereco": "RUA PROFESSOR DJALMA GUIMARAES, 140",
    "bairro": "Mangabeiras",
    "observacoes": "Carnaval 2026",
    "latitude": -19.9544965,
    "longitude": -43.91222
  },
  {
    "id": "18748",
    "nome": "NA TORA BLOCO",
    "data": "2026-02-08",
    "horario": "09:00",
    "endereco": "RUA CONSELHEIRO ROCHA, 2250",
    "bairro": "Santa Tereza",
    "observacoes": "Carnaval 2026",
    "latitude": -19.9176837,
    "longitude": -43.9198667
  },
  {
    "id": "18030",
    "nome": "BLOCO BESOURINHOS",
    "data": "2026-02-08",
    "horario": "09:30",
    "endereco": "PRACA CARLOS CHAGAS, 33",
    "bairro": "Santo Agostinho",
    "observacoes": "Carnaval 2026",
    "latitude": -19.9264632,
    "longitude": -43.9489377
  },
  {
    "id": "18674",
    "nome": "AFRONTA BH",
    "data": "2026-02-08",
    "horario": "10:00",
    "endereco": "PRACA DA LIBERDADE, 680",
    "bairro": "Savassi",
    "observacoes": "Carnaval 2026",
    "latitude": -19.9318363,
    "longitude": -43.9386702
  },
  {
    "id": "19110",
    "nome": "BLOCO DO PORTÃO",
    "data": "2026-02-08",
    "horario": "10:00",
    "endereco": "RUA DOUTOR PEDRO RUELA, 827",
    "bairro": "Letícia",
    "observacoes": "Carnaval 2026",
    "latitude": -19.806054,
    "longitude": -43.9766528
  },
  {
    "id": "19209",
    "nome": "ALCEU DISPOR",
    "data": "2026-02-08",
    "horario": "10:00",
    "endereco": "RUA ALEM PARAIBA, 1035",
    "bairro": "Bonfim",
    "observacoes": "Carnaval 2026",
    "latitude": -19.9098448,
    "longitude": -43.945462
  },
  {
    "id": "18930",
    "nome": "BLOCO ROCK BH",
    "data": "2026-02-08",
    "horario": "10:00",
    "endereco": "AVENIDA GETULIO VARGAS, 808",
    "bairro": "Savassi",
    "observacoes": "Carnaval 2026",
    "latitude": -19.9354737,
    "longitude": -43.9308738
  },
  {
    "id": "18511",
    "nome": "MINDINHO BATERIA MIRIM",
    "data": "2026-02-08",
    "horario": "10:00",
    "endereco": "RUA IBIRACI, 134",
    "bairro": "Salgado Filho",
    "observacoes": "Carnaval 2026",
    "latitude": -19.946992,
    "longitude": -43.983021
  },
  {
    "id": "18251",
    "nome": "ENCONTRO DE BOIZINHOS ENCANTADOS ",
    "data": "2026-02-08",
    "horario": "10:00",
    "endereco": "AVENIDA ALVARES CABRAL, 327",
    "bairro": "Lourdes",
    "observacoes": "Carnaval 2026",
    "latitude": -19.9273885,
    "longitude": -43.9406243
  },
  {
    "id": "18531",
    "nome": "BLOCO DO PÃO MOLHADO",
    "data": "2026-02-08",
    "horario": "10:30",
    "endereco": "RUA VALENCA, 148",
    "bairro": "Carlos Prates",
    "observacoes": "Carnaval 2026",
    "latitude": -19.9129008,
    "longitude": -43.9620492
  },
  {
    "id": "18313",
    "nome": "FOLIA DO CARDOSINHO 2026",
    "data": "2026-02-08",
    "horario": "11:00",
    "endereco": "PRACA ROTARY CLUB, 37",
    "bairro": "Sion",
    "observacoes": "Carnaval 2026",
    "latitude": -19.9566971,
    "longitude": -43.9305683
  },
  {
    "id": "19254",
    "nome": "UNIDOS COM MIRAGO",
    "data": "2026-02-08",
    "horario": "12:00",
    "endereco": "RUA DAS PETUNIAS, 2080",
    "bairro": "Lindéia",
    "observacoes": "Carnaval 2026",
    "latitude": -19.9830573,
    "longitude": -44.0451707
  },
  {
    "id": "19158",
    "nome": "BLOCO DO MINAS",
    "data": "2026-02-08",
    "horario": "12:00",
    "endereco": "AVENIDA DOS BANDEIRANTES, 2323",
    "bairro": "Serra",
    "observacoes": "Carnaval 2026",
    "latitude": -19.945113,
    "longitude": -43.917706
  },
  {
    "id": "18152",
    "nome": "BLOCO GAFIEIRA",
    "data": "2026-02-08",
    "horario": "12:00",
    "endereco": "RUA NOVA PONTE, 22",
    "bairro": "Salgado Filho",
    "observacoes": "Carnaval 2026",
    "latitude": -19.9463919,
    "longitude": -43.9827584
  },
  {
    "id": "18292",
    "nome": "BLOCO CIRCULADÔ",
    "data": "2026-02-08",
    "horario": "12:00",
    "endereco": "PRACA CORONEL BENJAMIN GUIMARAES, 50",
    "bairro": "Funcionários",
    "observacoes": "Carnaval 2026",
    "latitude": -19.9325162,
    "longitude": -43.9273183
  },
  {
    "id": "18766",
    "nome": "ALMAS EMPENADAS",
    "data": "2026-02-08",
    "horario": "12:00",
    "endereco": "RUA NILO APARECIDA PINTO, 341",
    "bairro": "Planalto",
    "observacoes": "Carnaval 2026",
    "latitude": -19.8300615,
    "longitude": -43.9566681
  },
  {
    "id": "18048",
    "nome": "BLOCO EU TE DEVORO ",
    "data": "2026-02-08",
    "horario": "13:00",
    "endereco": "AVENIDA DOS ENGENHEIROS, 568",
    "bairro": "Castelo",
    "observacoes": "Carnaval 2026",
    "latitude": -19.8919147,
    "longitude": -43.9975537
  },
  {
    "id": "18889",
    "nome": "BLOCO DO MADRUGA",
    "data": "2026-02-08",
    "horario": "13:00",
    "endereco": "RUA VERISSIMO, 146",
    "bairro": "Salgado Filho",
    "observacoes": "Carnaval 2026",
    "latitude": -19.9438594,
    "longitude": -43.9830713
  },
  {
    "id": "18789",
    "nome": "QUI SAMBA E ESSE ?",
    "data": "2026-02-08",
    "horario": "13:00",
    "endereco": "AVENIDA CLARA NUNES, 150",
    "bairro": "Renascença",
    "observacoes": "Carnaval 2026",
    "latitude": -19.8897642,
    "longitude": -43.93999
  },
  {
    "id": "19278",
    "nome": "ÔÔÔ GLÓRIA!!!",
    "data": "2026-02-08",
    "horario": "13:00",
    "endereco": "RUA JOAO RAMALHO, 250",
    "bairro": "Glória",
    "observacoes": "Carnaval 2026",
    "latitude": -19.9000296,
    "longitude": -44.0115157
  },
  {
    "id": "18471",
    "nome": "C&T ",
    "data": "2026-02-08",
    "horario": "13:00",
    "endereco": "RUA ANTAO GONCALVES, 180",
    "bairro": "Taquaril",
    "observacoes": "Carnaval 2026",
    "latitude": -19.9196607,
    "longitude": -43.8814092
  },
  {
    "id": "19004",
    "nome": "BLOCO LIBERDADE E ÁGUA LIMPA",
    "data": "2026-02-08",
    "horario": "13:30",
    "endereco": "RUA DOS OTONI, 69",
    "bairro": "Santa Efigênia",
    "observacoes": "Carnaval 2026",
    "latitude": -19.9256776,
    "longitude": -43.9278657
  },
  {
    "id": "19127",
    "nome": "BLOCO DA JANUÁRIO",
    "data": "2026-02-08",
    "horario": "14:00",
    "endereco": "AVENIDA PETROLINA, 410",
    "bairro": "Sagrada Família",
    "observacoes": "Carnaval 2026",
    "latitude": -19.9053324,
    "longitude": -43.9160517
  },
  {
    "id": "19093",
    "nome": "BLOCO CARNAVALESCO AS VIRGENS DO FORMIGUEIRO QUENTE ",
    "data": "2026-02-08",
    "horario": "14:00",
    "endereco": "RUA IZALINA FAUSTINA SILVEIRA, 18",
    "bairro": "Mantiqueira",
    "observacoes": "Carnaval 2026",
    "latitude": -19.7970469,
    "longitude": -43.9850856
  },
  {
    "id": "19152",
    "nome": "NOVA FOLIA ",
    "data": "2026-02-08",
    "horario": "14:00",
    "endereco": "RUA ENGENHEIRO CORREIA, 279",
    "bairro": "Nova Floresta",
    "observacoes": "Carnaval 2026",
    "latitude": -19.8900874,
    "longitude": -43.933359
  },
  {
    "id": "19313",
    "nome": "BARCCA FURADA E FABINHO DO TERREIRO",
    "data": "2026-02-08",
    "horario": "14:00",
    "endereco": "AVENIDA PASTOR ANSELMO SILVESTRE, 85",
    "bairro": "Boa Vista",
    "observacoes": "Carnaval 2026",
    "latitude": -19.8940712,
    "longitude": -43.9036739
  },
  {
    "id": "18571",
    "nome": "BLOCO SAGRADA FOLIA",
    "data": "2026-02-08",
    "horario": "14:00",
    "endereco": "RUA PITANGUI, 3245",
    "bairro": "Sagrada Família",
    "observacoes": "Carnaval 2026",
    "latitude": -19.9083269,
    "longitude": -43.9145881
  },
  {
    "id": "18573",
    "nome": "PENSA EM MIM",
    "data": "2026-02-08",
    "horario": "14:00",
    "endereco": "RUA ANTONIO TEIXEIRA DIAS, 1509",
    "bairro": "Teixeira Dias",
    "observacoes": "Carnaval 2026",
    "latitude": -19.9895769,
    "longitude": -44.0140963
  },
  {
    "id": "18558",
    "nome": "BLOCO TURMA DA LINGUA SOLTA",
    "data": "2026-02-08",
    "horario": "14:00",
    "endereco": "RUA ITAGUAI, 431",
    "bairro": "Alto Caiçaras",
    "observacoes": "Carnaval 2026",
    "latitude": -19.8945215,
    "longitude": -43.9713822
  },
  {
    "id": "18866",
    "nome": "CHA DA ALICE",
    "data": "2026-02-08",
    "horario": "14:00",
    "endereco": "AVENIDA BRASIL, 1145",
    "bairro": "Funcionários",
    "observacoes": "Carnaval 2026",
    "latitude": -19.9286205,
    "longitude": -43.9294379
  },
  {
    "id": "18854",
    "nome": "CARNAKVSH",
    "data": "2026-02-08",
    "horario": "14:00",
    "endereco": "AVENIDA GETULIO VARGAS, 1059",
    "bairro": "Savassi",
    "observacoes": "Carnaval 2026",
    "latitude": -19.936868,
    "longitude": -43.9329355
  },
  {
    "id": "18189",
    "nome": "BLOCO SALADA DE FRUTAS",
    "data": "2026-02-08",
    "horario": "14:00",
    "endereco": "AVENIDA ASSIS CHATEAUBRIAND, 127",
    "bairro": "Floresta",
    "observacoes": "Carnaval 2026",
    "latitude": -19.9162429,
    "longitude": -43.9278764
  },
  {
    "id": "18218",
    "nome": "@BSURDA",
    "data": "2026-02-08",
    "horario": "14:00",
    "endereco": "RUA AARAO REIS, 510",
    "bairro": "Centro",
    "observacoes": "Carnaval 2026",
    "latitude": -19.9153446,
    "longitude": -43.9333313
  },
  {
    "id": "18232",
    "nome": "FURDUNÇIN DO MEU REI",
    "data": "2026-02-08",
    "horario": "14:00",
    "endereco": "RUA LEVINDO LOPES, 124",
    "bairro": "Savassi",
    "observacoes": "Carnaval 2026",
    "latitude": -19.9370314,
    "longitude": -43.9396178
  },
  {
    "id": "18452",
    "nome": "BLOCO MANGA COM DENDÊ ",
    "data": "2026-02-08",
    "horario": "14:00",
    "endereco": "RODOVIA CAMILO TEIXEIRA DA COSTA, 1350",
    "bairro": "Granja Werneck",
    "observacoes": "Carnaval 2026",
    "latitude": -19.827662,
    "longitude": -43.9044658
  },
  {
    "id": "18210",
    "nome": "MENINOS DO MORRO",
    "data": "2026-02-08",
    "horario": "14:30",
    "endereco": "PRACA SANTA CRUZ, 10",
    "bairro": "Pedreira Prado Lopes",
    "observacoes": "Carnaval 2026",
    "latitude": -19.9021269,
    "longitude": -43.9497979
  },
  {
    "id": "18071",
    "nome": "CHIC XIQUE FORROZEIRROS",
    "data": "2026-02-08",
    "horario": "14:30",
    "endereco": "RUA VERSILIA, 50",
    "bairro": "Bandeirantes",
    "observacoes": "Carnaval 2026",
    "latitude": -19.8601129,
    "longitude": -43.9817822
  },
  {
    "id": "19019",
    "nome": "SIAXEGUE",
    "data": "2026-02-08",
    "horario": "15:00",
    "endereco": "AVENIDA GUARAPARI, 1367",
    "bairro": "Santa Amélia",
    "observacoes": "Carnaval 2026",
    "latitude": -19.8388542,
    "longitude": -43.977372
  },
  {
    "id": "19157",
    "nome": "BAIANOS USADOS",
    "data": "2026-02-08",
    "horario": "15:00",
    "endereco": "RUA GERALDO MARTINS DA SILVA, 111",
    "bairro": "Jaqueline",
    "observacoes": "Carnaval 2026",
    "latitude": -19.8008324,
    "longitude": -43.9375687
  },
  {
    "id": "18672",
    "nome": "BLOCO CAI LUA",
    "data": "2026-02-08",
    "horario": "15:00",
    "endereco": "RUA FREI HILARIO, 10",
    "bairro": "Planalto",
    "observacoes": "Carnaval 2026",
    "latitude": -19.8416226,
    "longitude": -43.9450809
  },
  {
    "id": "18329",
    "nome": "TREM DU BÃO",
    "data": "2026-02-08",
    "horario": "15:00",
    "endereco": "AVENIDA SANTA MATILDE, 190",
    "bairro": "João Pinheiro",
    "observacoes": "Carnaval 2026",
    "latitude": -19.9240132,
    "longitude": -43.9997747
  },
  {
    "id": "18860",
    "nome": "BOI ROSADO",
    "data": "2026-02-08",
    "horario": "15:00",
    "endereco": "RUA ANGELO RABELO, 54",
    "bairro": "Santa Tereza",
    "observacoes": "Carnaval 2026",
    "latitude": -19.916284,
    "longitude": -43.919805
  },
  {
    "id": "19071",
    "nome": "BLOCO ÁLIBE",
    "data": "2026-02-08",
    "horario": "16:00",
    "endereco": "PRACA CRISTO REDENTOR, 28",
    "bairro": "Milionários",
    "observacoes": "Carnaval 2026",
    "latitude": -19.9767381,
    "longitude": -43.9991403
  },
  {
    "id": "19097",
    "nome": "SAI PRA LÁ, CAPETA",
    "data": "2026-02-10",
    "horario": "18:00",
    "endereco": "PRACA MEXICO, 222",
    "bairro": "Concórdia",
    "observacoes": "Carnaval 2026",
    "latitude": -19.9020498,
    "longitude": -43.9358187
  },
  {
    "id": "19194",
    "nome": "BLOCO DA RUA",
    "data": "2026-02-11",
    "horario": "13:00",
    "endereco": "RUA VARGINHA, 215",
    "bairro": "Colégio Batista",
    "observacoes": "Carnaval 2026",
    "latitude": -19.9107763,
    "longitude": -43.9363781
  },
  {
    "id": "19073",
    "nome": "CHAMA O SÍNDICO",
    "data": "2026-02-11",
    "horario": "16:00",
    "endereco": "AVENIDA AFONSO PENA, 1377",
    "bairro": "Centro",
    "observacoes": "Carnaval 2026",
    "latitude": -19.9255492,
    "longitude": -43.934533
  },
  {
    "id": "19026",
    "nome": "PIPINO FOLIA",
    "data": "2026-02-11",
    "horario": "18:30",
    "endereco": "AVENIDA ANTONIO ABRAHAO CARAM, 996",
    "bairro": "São José",
    "observacoes": "Carnaval 2026",
    "latitude": -19.861896,
    "longitude": -43.9674454
  },
  {
    "id": "19196",
    "nome": "BLOCO DA RUA",
    "data": "2026-02-12",
    "horario": "13:00",
    "endereco": "RUA RIO DE JANEIRO, 1010",
    "bairro": "Centro",
    "observacoes": "Carnaval 2026",
    "latitude": -19.925814,
    "longitude": -43.9404836
  },
  {
    "id": "19331",
    "nome": "BLOCO DA LIMPEZA",
    "data": "2026-02-12",
    "horario": "15:00",
    "endereco": "AVENIDA JOAO PINHEIRO, 611",
    "bairro": "Boa Viagem",
    "observacoes": "Carnaval 2026",
    "latitude": -19.926803,
    "longitude": -43.9365174
  },
  {
    "id": "19027",
    "nome": "TBTECHNO",
    "data": "2026-02-12",
    "horario": "16:00",
    "endereco": "RUA DA BAHIA, 55",
    "bairro": "Centro",
    "observacoes": "Carnaval 2026",
    "latitude": -19.9203493,
    "longitude": -43.9362181
  },
  {
    "id": "18876",
    "nome": "ARRASTÃO DO HOTT",
    "data": "2026-02-12",
    "horario": "18:00",
    "endereco": "AVENIDA ANTONIO ABRAHAO CARAM, 972",
    "bairro": "São José",
    "observacoes": "Carnaval 2026",
    "latitude": -19.861896,
    "longitude": -43.9674454
  },
  {
    "id": "18872",
    "nome": "BLOCO BEIJO",
    "data": "2026-02-12",
    "horario": "18:00",
    "endereco": "RUA SERGIPE, 779",
    "bairro": "Savassi",
    "observacoes": "Carnaval 2026",
    "latitude": -19.9333681,
    "longitude": -43.9368612
  },
  {
    "id": "19091",
    "nome": "BLOCO ESQUINA DA FOLIA",
    "data": "2026-02-12",
    "horario": "18:30",
    "endereco": "RUA SAO BORJA, 835",
    "bairro": "Nova Vista",
    "observacoes": "Carnaval 2026",
    "latitude": -19.889955,
    "longitude": -43.9012711
  },
  {
    "id": "18877",
    "nome": "BLOCO DO 3 PRETO",
    "data": "2026-02-12",
    "horario": "18:30",
    "endereco": "RUA ANTONIO PEIXOTO GUIMARAES, 450",
    "bairro": "Caiçara-Adelaide",
    "observacoes": "Carnaval 2026",
    "latitude": -19.9051336,
    "longitude": -43.9749872
  },
  {
    "id": "18917",
    "nome": "BLOCO DA BICICLETINHA",
    "data": "2026-02-12",
    "horario": "21:00",
    "endereco": "AVENIDA CARANDAI, 617",
    "bairro": "Funcionários",
    "observacoes": "Carnaval 2026",
    "latitude": -19.9292613,
    "longitude": -43.9241833
  },
  {
    "id": "19024",
    "nome": "MARGARIDA PERFUMADA MP",
    "data": "2026-02-13",
    "horario": "15:30",
    "endereco": "RUA DEZ DE NOVEMBRO, 176",
    "bairro": "São Tomáz",
    "observacoes": "Carnaval 2026",
    "latitude": -19.8436414,
    "longitude": -43.9502517
  },
  {
    "id": "18937",
    "nome": "BLOCO DIRETUCADA",
    "data": "2026-02-13",
    "horario": "17:00",
    "endereco": "AVENIDA ALVARES CABRAL, 366",
    "bairro": "Lourdes",
    "observacoes": "Carnaval 2026",
    "latitude": -19.9261048,
    "longitude": -43.938404
  },
  {
    "id": "18033",
    "nome": "Ô DORAL, PEGA NO MEU BRAÇO!",
    "data": "2026-02-13",
    "horario": "17:00",
    "endereco": "RUA LEONIL PRATA, 535",
    "bairro": "Alípio de Melo",
    "observacoes": "Carnaval 2026",
    "latitude": -19.8958476,
    "longitude": -44.0055577
  },
  {
    "id": "18330",
    "nome": "WS ELÉTRICO",
    "data": "2026-02-13",
    "horario": "17:00",
    "endereco": "RUA SERGIPE, 841",
    "bairro": "Savassi",
    "observacoes": "Carnaval 2026",
    "latitude": -19.9339158,
    "longitude": -43.9370052
  },
  {
    "id": "18914",
    "nome": "BLOCO TIMBALEIROS DO GHETTO",
    "data": "2026-02-13",
    "horario": "17:00",
    "endereco": "RUA AARAO REIS, 585",
    "bairro": "Centro",
    "observacoes": "Carnaval 2026",
    "latitude": -19.9153446,
    "longitude": -43.9333313
  },
  {
    "id": "18812",
    "nome": "BLOCO ",
    "data": "2026-02-13",
    "horario": "17:00",
    "endereco": "RUA ALVARENGA PEIXOTO, 991",
    "bairro": "Santo Agostinho",
    "observacoes": "Carnaval 2026",
    "latitude": -19.9295897,
    "longitude": -43.9494303
  },
  {
    "id": "19010",
    "nome": "BLOCO DA SOL",
    "data": "2026-02-13",
    "horario": "17:00",
    "endereco": "RUA VINTE E CINCO DE AGOSTO, 444",
    "bairro": "Aparecida",
    "observacoes": "Carnaval 2026",
    "latitude": -19.8944027,
    "longitude": -43.9565162
  },
  {
    "id": "18694",
    "nome": "PROVE PRIMEIRO",
    "data": "2026-02-13",
    "horario": "17:00",
    "endereco": "RUA JACANA, 26",
    "bairro": "Providência",
    "observacoes": "Carnaval 2026",
    "latitude": -19.8574174,
    "longitude": -43.9285862
  },
  {
    "id": "18552",
    "nome": "PASSA LÁ NO RH E ME CHAMA QUE EU VOU. ",
    "data": "2026-02-13",
    "horario": "17:00",
    "endereco": "RUA TOME DE SOUZA, 840",
    "bairro": "Savassi",
    "observacoes": "Carnaval 2026",
    "latitude": -19.9358377,
    "longitude": -43.9396468
  },
  {
    "id": "18042",
    "nome": "BLOCO DO GRIFO",
    "data": "2026-02-13",
    "horario": "17:30",
    "endereco": "AVENIDA CORONEL OSCAR PASCHOAL, 155",
    "bairro": "São Luíz",
    "observacoes": "Carnaval 2026",
    "latitude": -19.8693743,
    "longitude": -43.9717088
  },
  {
    "id": "18311",
    "nome": "OS MENINOS DA MEIA-NOITE",
    "data": "2026-02-13",
    "horario": "17:30",
    "endereco": "RUA SETE DE ABRIL, 485",
    "bairro": "Esplanada",
    "observacoes": "Carnaval 2026",
    "latitude": -19.9060684,
    "longitude": -43.9088456
  },
  {
    "id": "18918",
    "nome": "PAGODE DO PAULINHO ",
    "data": "2026-02-13",
    "horario": "18:00",
    "endereco": "RUA ALBERTO CINTRA, 365",
    "bairro": "União",
    "observacoes": "Carnaval 2026",
    "latitude": -19.8809841,
    "longitude": -43.9283326
  },
  {
    "id": "18673",
    "nome": "BLOCO AFRO-PERIFÉRICO ORISAMBA ",
    "data": "2026-02-13",
    "horario": "18:00",
    "endereco": "RUA FAGUNDES VARELA, 95",
    "bairro": "Senhor dos Passos",
    "observacoes": "Carnaval 2026",
    "latitude": -19.9061226,
    "longitude": -43.9469923
  },
  {
    "id": "18956",
    "nome": "BLOCO INTERVALO",
    "data": "2026-02-13",
    "horario": "18:00",
    "endereco": "RUA DAVID CAMPISTA, 42",
    "bairro": "Floresta",
    "observacoes": "Carnaval 2026",
    "latitude": -19.9161767,
    "longitude": -43.9288118
  },
  {
    "id": "18753",
    "nome": "BLOCO NO CAMINHO",
    "data": "2026-02-13",
    "horario": "18:30",
    "endereco": "RUA DOUTOR MARIO MAGALHAES, 506",
    "bairro": "Itapoã",
    "observacoes": "Carnaval 2026",
    "latitude": -19.836413,
    "longitude": -43.9598787
  },
  {
    "id": "18375",
    "nome": "RODA DE TIMBAU",
    "data": "2026-02-13",
    "horario": "19:00",
    "endereco": "AVENIDA AUGUSTO DE LIMA, 1715",
    "bairro": "Barro Preto",
    "observacoes": "Carnaval 2026",
    "latitude": -19.9213543,
    "longitude": -43.952724
  },
  {
    "id": "18899",
    "nome": "BLOCO DO VÔ MANOEL",
    "data": "2026-02-13",
    "horario": "19:00",
    "endereco": "RUA EVARISTO DA VEIGA, 140",
    "bairro": "Senhor dos Passos",
    "observacoes": "Carnaval 2026",
    "latitude": -19.9057953,
    "longitude": -43.9487273
  },
  {
    "id": "18469",
    "nome": "BLOCO BAIAO DE RUA ",
    "data": "2026-02-13",
    "horario": "20:00",
    "endereco": "RUA MARECHAL DEODORO, 21",
    "bairro": "Floresta",
    "observacoes": "Carnaval 2026",
    "latitude": -19.9173827,
    "longitude": -43.9279315
  },
  {
    "id": "18005",
    "nome": "BLOCO FÚNEBRE",
    "data": "2026-02-13",
    "horario": "23:00",
    "endereco": "PRACA DA BANDEIRA, 49",
    "bairro": "Serra",
    "observacoes": "Carnaval 2026",
    "latitude": -19.9405558,
    "longitude": -43.918423
  },
  {
    "id": "19113",
    "nome": "ENTÃO, BRILHA!",
    "data": "2026-02-14",
    "horario": "05:00",
    "endereco": "AVENIDA DO CONTORNO, 160",
    "bairro": "Centro",
    "observacoes": "Carnaval 2026",
    "latitude": -19.9122903,
    "longitude": -43.9389384
  },
  {
    "id": "18290",
    "nome": "BLOCO DO SUSTENIDO",
    "data": "2026-02-14",
    "horario": "08:00",
    "endereco": "RUA DOS TOPOGRAFOS, 231",
    "bairro": "Alípio de Melo",
    "observacoes": "Carnaval 2026",
    "latitude": -19.8902952,
    "longitude": -44.0015502
  },
  {
    "id": "19164",
    "nome": "BLOCO DO SILÊNCIO",
    "data": "2026-02-14",
    "horario": "08:00",
    "endereco": "RUA CESAR SALLES BARBOSA, 201",
    "bairro": "Mantiqueira",
    "observacoes": "Carnaval 2026",
    "latitude": -19.798737,
    "longitude": -43.9781005
  },
  {
    "id": "18018",
    "nome": "BLOCO DO PAMP",
    "data": "2026-02-14",
    "horario": "08:30",
    "endereco": "AVENIDA ALVARES CABRAL, 1600",
    "bairro": "Santo Agostinho",
    "observacoes": "Carnaval 2026",
    "latitude": -19.9323135,
    "longitude": -43.9501224
  },
  {
    "id": "18040",
    "nome": "BLOCO QUANDO COME SE LAMBUZA",
    "data": "2026-02-14",
    "horario": "09:00",
    "endereco": "AVENIDA AFONSO PENA, 532",
    "bairro": "Centro",
    "observacoes": "Carnaval 2026",
    "latitude": -19.916884,
    "longitude": -43.9401144
  },
  {
    "id": "18951",
    "nome": "OS BATERINHAS",
    "data": "2026-02-14",
    "horario": "09:00",
    "endereco": "AVENIDA SARAMENHA, 1470",
    "bairro": "Guarani",
    "observacoes": "Carnaval 2026",
    "latitude": -19.8433654,
    "longitude": -43.9185982
  },
  {
    "id": "19072",
    "nome": "BLOCO DO MARMITEIRO",
    "data": "2026-02-14",
    "horario": "09:00",
    "endereco": "AVENIDA DOS ESPORTES, 633",
    "bairro": "Marmiteiros",
    "observacoes": "Carnaval 2026",
    "latitude": -19.919958,
    "longitude": -43.9850969
  },
  {
    "id": "19058",
    "nome": "BLOCO DO PIRULITO ",
    "data": "2026-02-14",
    "horario": "09:00",
    "endereco": "RUA RUBENS DE SOUZA PIMENTEL, 800",
    "bairro": "Minaslândia",
    "observacoes": "Carnaval 2026",
    "latitude": -19.848233,
    "longitude": -43.9277871
  },
  {
    "id": "19190",
    "nome": "BLOCO AFRO FILHOS DAS ÁGUAS ",
    "data": "2026-02-14",
    "horario": "09:30",
    "endereco": "RUA ITARARE, 455",
    "bairro": "Concórdia",
    "observacoes": "Carnaval 2026",
    "latitude": -19.9006625,
    "longitude": -43.9396378
  },
  {
    "id": "18890",
    "nome": "DIVINA BANDA ",
    "data": "2026-02-14",
    "horario": "10:00",
    "endereco": "RUA MARMORE, 500",
    "bairro": "Santa Tereza",
    "observacoes": "Carnaval 2026",
    "latitude": -19.9162948,
    "longitude": -43.9182816
  },
  {
    "id": "18591",
    "nome": "UAI CÊ SAMBA",
    "data": "2026-02-14",
    "horario": "10:00",
    "endereco": "ALAMEDA DAS PALMEIRAS, 921",
    "bairro": "São José",
    "observacoes": "Carnaval 2026",
    "latitude": -20.2523437,
    "longitude": -43.7895008
  },
  {
    "id": "18859",
    "nome": "BLOCO DO SEBÁ - VAI, CABOCLINHO!",
    "data": "2026-02-14",
    "horario": "10:00",
    "endereco": "RUA ITAJUBA, 273",
    "bairro": "Floresta",
    "observacoes": "Carnaval 2026",
    "latitude": -19.912708,
    "longitude": -43.9299591
  },
  {
    "id": "18609",
    "nome": "BLOCO DO VÔ MANOEL",
    "data": "2026-02-14",
    "horario": "10:00",
    "endereco": "RUA MACHADO DE ASSIS, 189",
    "bairro": "Senhor dos Passos",
    "observacoes": "Carnaval 2026",
    "latitude": -19.9061081,
    "longitude": -43.9476244
  },
  {
    "id": "18158",
    "nome": "BLOCO MICARETEIROS",
    "data": "2026-02-14",
    "horario": "10:00",
    "endereco": "AVENIDA GETULIO VARGAS, 802",
    "bairro": "Savassi",
    "observacoes": "Carnaval 2026",
    "latitude": -19.9354463,
    "longitude": -43.9308246
  },
  {
    "id": "17982",
    "nome": "BLOCO FOLIA POR ELAS",
    "data": "2026-02-14",
    "horario": "10:00",
    "endereco": "AVENIDA ALVARES CABRAL, 365",
    "bairro": "Lourdes",
    "observacoes": "Carnaval 2026",
    "latitude": -19.9289737,
    "longitude": -43.9434651
  },
  {
    "id": "19281",
    "nome": "BLOCO DO TORRESMO",
    "data": "2026-02-14",
    "horario": "11:00",
    "endereco": "RUA MARMORE, 261",
    "bairro": "Santa Tereza",
    "observacoes": "Carnaval 2026",
    "latitude": -19.9162948,
    "longitude": -43.9182816
  },
  {
    "id": "18497",
    "nome": "BLOCO UNIDOS DE SÃO VICENTE",
    "data": "2026-02-14",
    "horario": "12:00",
    "endereco": "RUA CAPITAO JOSE CARLOS VAZ DE MELO, 11",
    "bairro": "Nova Suissa",
    "observacoes": "Carnaval 2026",
    "latitude": -19.9310673,
    "longitude": -43.9774107
  },
  {
    "id": "19149",
    "nome": "BLOCO BATOM ROSA",
    "data": "2026-02-14",
    "horario": "12:00",
    "endereco": "RUA CACHOEIRA DOURADA, 53",
    "bairro": "Paraíso",
    "observacoes": "Carnaval 2026",
    "latitude": -19.9172456,
    "longitude": -43.909518
  },
  {
    "id": "18026",
    "nome": "BLOCO DO KANELLA",
    "data": "2026-02-14",
    "horario": "12:00",
    "endereco": "RUA ANTONIO DE ALBUQUERQUE, 360",
    "bairro": "Savassi",
    "observacoes": "Carnaval 2026",
    "latitude": -19.9372065,
    "longitude": -43.9394673
  },
  {
    "id": "18883",
    "nome": "BLOCO OH! TEREZINHA",
    "data": "2026-02-14",
    "horario": "12:00",
    "endereco": "RUA DIVINOPOLIS, 222",
    "bairro": "Santa Tereza",
    "observacoes": "Carnaval 2026",
    "latitude": -19.9155146,
    "longitude": -43.9118038
  },
  {
    "id": "18165",
    "nome": "BLOCO DO 80",
    "data": "2026-02-14",
    "horario": "12:00",
    "endereco": "RUA SANTA RITA DURAO, 385",
    "bairro": "Savassi",
    "observacoes": "Carnaval 2026",
    "latitude": -19.9360583,
    "longitude": -43.9291776
  },
  {
    "id": "18016",
    "nome": "FILHAS DE GABY E OS DESGARRADOS",
    "data": "2026-02-14",
    "horario": "13:00",
    "endereco": "PRACA CORONEL BENJAMIN GUIMARAES, 50",
    "bairro": "Funcionários",
    "observacoes": "Carnaval 2026",
    "latitude": -19.9325162,
    "longitude": -43.9273183
  },
  {
    "id": "17991",
    "nome": "BLOCO XIBIU",
    "data": "2026-02-14",
    "horario": "13:00",
    "endereco": "AVENIDA DOS ENGENHEIROS, 600",
    "bairro": "Castelo",
    "observacoes": "Carnaval 2026",
    "latitude": -19.8919147,
    "longitude": -43.9975537
  },
  {
    "id": "18012",
    "nome": "ASA DE BANANA",
    "data": "2026-02-14",
    "horario": "13:00",
    "endereco": "AVENIDA AUGUSTO DE LIMA, 1845",
    "bairro": "Barro Preto",
    "observacoes": "Carnaval 2026",
    "latitude": -19.9220472,
    "longitude": -43.9476699
  },
  {
    "id": "18034",
    "nome": "UNIDOS DA ESTRELA DA MORTE ",
    "data": "2026-02-14",
    "horario": "13:00",
    "endereco": "RUA MARECHAL DEODORO, 248",
    "bairro": "Floresta",
    "observacoes": "Carnaval 2026",
    "latitude": -19.9173827,
    "longitude": -43.9279315
  },
  {
    "id": "18008",
    "nome": "BLOCO FARAÓ",
    "data": "2026-02-14",
    "horario": "13:00",
    "endereco": "AVENIDA DOS ANDRADAS, 751",
    "bairro": "Centro",
    "observacoes": "Carnaval 2026",
    "latitude": -19.9216294,
    "longitude": -43.9331831
  },
  {
    "id": "18151",
    "nome": "BLOCO GAFIEIRA",
    "data": "2026-02-14",
    "horario": "13:00",
    "endereco": "AVENIDA JOAO PINHEIRO, 258",
    "bairro": "Lourdes",
    "observacoes": "Carnaval 2026",
    "latitude": -19.9279996,
    "longitude": -43.9370071
  },
  {
    "id": "19021",
    "nome": "DEU SAMBA",
    "data": "2026-02-14",
    "horario": "13:00",
    "endereco": "RUA VERSILIA, 50",
    "bairro": "Bandeirantes",
    "observacoes": "Carnaval 2026",
    "latitude": -19.8601129,
    "longitude": -43.9817822
  },
  {
    "id": "18278",
    "nome": "DE SEU BENTO A DONA LÚCIA",
    "data": "2026-02-14",
    "horario": "13:00",
    "endereco": "PRACA ARCANGELO MALETTA, 40",
    "bairro": "Santa Lúcia",
    "observacoes": "Carnaval 2026",
    "latitude": -19.9632256,
    "longitude": -43.945101
  },
  {
    "id": "18929",
    "nome": "BLOCO DO PIRULITO",
    "data": "2026-02-14",
    "horario": "13:00",
    "endereco": "AVENIDA ALVARES CABRAL, 366",
    "bairro": "Lourdes",
    "observacoes": "Carnaval 2026",
    "latitude": -19.9261048,
    "longitude": -43.938404
  },
  {
    "id": "18739",
    "nome": "MASTERPLANO",
    "data": "2026-02-14",
    "horario": "13:00",
    "endereco": "RUA CAMILO PRATES, 390",
    "bairro": "União",
    "observacoes": "Carnaval 2026",
    "latitude": -19.8821063,
    "longitude": -43.9190119
  },
  {
    "id": "18832",
    "nome": "AFLIFOLIA",
    "data": "2026-02-14",
    "horario": "13:00",
    "endereco": "RUA ITAPEMA, 174",
    "bairro": "Anchieta",
    "observacoes": "Carnaval 2026",
    "latitude": -19.9493059,
    "longitude": -43.9273932
  },
  {
    "id": "18875",
    "nome": "BLOCO DO MAGRELA FEIO ",
    "data": "2026-02-14",
    "horario": "13:00",
    "endereco": "RUA ITAMBACURI, 15",
    "bairro": "Carlos Prates",
    "observacoes": "Carnaval 2026",
    "latitude": -19.9163084,
    "longitude": -43.9662814
  },
  {
    "id": "19061",
    "nome": "GALERA DE BELÔ O BLOCO",
    "data": "2026-02-14",
    "horario": "13:00",
    "endereco": "AVENIDA DOUTOR CRISTIANO GUIMARAES, 2027",
    "bairro": "Planalto",
    "observacoes": "Carnaval 2026",
    "latitude": -19.8289924,
    "longitude": -43.9519176
  },
  {
    "id": "18983",
    "nome": "BLOCO NADA SANTA",
    "data": "2026-02-14",
    "horario": "13:00",
    "endereco": "RUA MARMORE, 261",
    "bairro": "Santa Tereza",
    "observacoes": "Carnaval 2026",
    "latitude": -19.9162948,
    "longitude": -43.9182816
  },
  {
    "id": "19050",
    "nome": "BLOCO QUINTAL DA DONA INES",
    "data": "2026-02-14",
    "horario": "13:00",
    "endereco": "RUA HORTENCIA, 523",
    "bairro": "Esplanada",
    "observacoes": "Carnaval 2026",
    "latitude": -19.9054992,
    "longitude": -43.9042678
  },
  {
    "id": "18991",
    "nome": "BLOCO DO VELUDO",
    "data": "2026-02-14",
    "horario": "14:00",
    "endereco": "AVENIDA GETULIO VARGAS, 802",
    "bairro": "Savassi",
    "observacoes": "Carnaval 2026",
    "latitude": -19.9354463,
    "longitude": -43.9308246
  },
  {
    "id": "19334",
    "nome": "ETA JUREMA ",
    "data": "2026-02-14",
    "horario": "14:00",
    "endereco": "RUA PERNAMBUCO, 1045",
    "bairro": "Savassi",
    "observacoes": "Carnaval 2026",
    "latitude": -19.9338941,
    "longitude": -43.934401
  },
  {
    "id": "18864",
    "nome": "GEN&ALL",
    "data": "2026-02-14",
    "horario": "14:00",
    "endereco": "RUA LUTHER KING, 166",
    "bairro": "Cidade Nova",
    "observacoes": "Carnaval 2026",
    "latitude": -19.8926606,
    "longitude": -43.924606
  },
  {
    "id": "18984",
    "nome": "BAILE DA SAPATARIA ",
    "data": "2026-02-14",
    "horario": "14:00",
    "endereco": "RUA FERNANDES TOURINHO, 588",
    "bairro": "Savassi",
    "observacoes": "Carnaval 2026",
    "latitude": -19.9385126,
    "longitude": -43.9391784
  },
  {
    "id": "19165",
    "nome": "LET'S DANCE",
    "data": "2026-02-14",
    "horario": "14:00",
    "endereco": "AVENIDA AGULHAS NEGRAS, 161",
    "bairro": "Mangabeiras",
    "observacoes": "Carnaval 2026",
    "latitude": -19.9517004,
    "longitude": -43.9164459
  },
  {
    "id": "19005",
    "nome": "RELEMBRANDO O CORSO DO CARNAVAL DOS ANOS 50",
    "data": "2026-02-14",
    "horario": "14:00",
    "endereco": "RUA MARILIA DE DIRCEU, 30",
    "bairro": "Lourdes",
    "observacoes": "Carnaval 2026",
    "latitude": -19.9332747,
    "longitude": -43.9453956
  },
  {
    "id": "17999",
    "nome": "BURITIS DE GUIMARÃES ROSA",
    "data": "2026-02-14",
    "horario": "14:30",
    "endereco": "RUA HENRIQUE BADARO PORTUGAL, 68",
    "bairro": "Buritis",
    "observacoes": "Carnaval 2026",
    "latitude": -19.974466,
    "longitude": -43.976098
  },
  {
    "id": "18559",
    "nome": "BLOCO DO VINTÃO",
    "data": "2026-02-14",
    "horario": "15:00",
    "endereco": "RUA JUDA, 362",
    "bairro": "Glória",
    "observacoes": "Carnaval 2026",
    "latitude": -19.898082,
    "longitude": -44.0110814
  },
  {
    "id": "18569",
    "nome": "MICARETA DO ME GUSTA",
    "data": "2026-02-14",
    "horario": "15:00",
    "endereco": "RUA NILO APARECIDA PINTO, 480",
    "bairro": "Planalto",
    "observacoes": "Carnaval 2026",
    "latitude": -19.8300615,
    "longitude": -43.9566681
  },
  {
    "id": "18250",
    "nome": "GATO ESCALDADO",
    "data": "2026-02-14",
    "horario": "15:00",
    "endereco": "AVENIDA AFONSO PENA, 4320",
    "bairro": "Cruzeiro",
    "observacoes": "Carnaval 2026",
    "latitude": -19.9472705,
    "longitude": -43.9211589
  },
  {
    "id": "18092",
    "nome": "BLOCO DE BELÔ",
    "data": "2026-02-14",
    "horario": "15:00",
    "endereco": "AVENIDA AFONSO PENA, 1377",
    "bairro": "Centro",
    "observacoes": "Carnaval 2026",
    "latitude": -19.9255492,
    "longitude": -43.934533
  },
  {
    "id": "19355",
    "nome": "VEM PRA ESQUINA KALUAR",
    "data": "2026-02-14",
    "horario": "15:00",
    "endereco": "RUA SAIRA, 8",
    "bairro": "Goiânia",
    "observacoes": "Carnaval 2026",
    "latitude": -19.8654474,
    "longitude": -43.898207
  },
  {
    "id": "19280",
    "nome": "BATEKOO - BLOCO DE CARNAVAL",
    "data": "2026-02-14",
    "horario": "15:00",
    "endereco": "RUA DOS GUAJAJARAS, 2118",
    "bairro": "Barro Preto",
    "observacoes": "Carnaval 2026",
    "latitude": -19.9214483,
    "longitude": -43.955848
  },
  {
    "id": "19237",
    "nome": "DIABAS DE LUNETA",
    "data": "2026-02-14",
    "horario": "15:00",
    "endereco": "RUA ITAJUBA, 208",
    "bairro": "Floresta",
    "observacoes": "Carnaval 2026",
    "latitude": -19.9091278,
    "longitude": -43.9289883
  },
  {
    "id": "19230",
    "nome": "BLOCO DO GALO",
    "data": "2026-02-14",
    "horario": "15:00",
    "endereco": "RUA CHRISTINA MARIA ASSIS, 593",
    "bairro": "Califórnia",
    "observacoes": "Carnaval 2026",
    "latitude": -19.9247382,
    "longitude": -44.0121101
  },
  {
    "id": "19231",
    "nome": "GOIANEIROS",
    "data": "2026-02-14",
    "horario": "15:00",
    "endereco": "AVENIDA CLARA NUNES, 169",
    "bairro": "Renascença",
    "observacoes": "Carnaval 2026",
    "latitude": -19.8897642,
    "longitude": -43.93999
  },
  {
    "id": "19199",
    "nome": "BEAGÁ NA FOLIA - CLAYTON E ROMÁRIO",
    "data": "2026-02-14",
    "horario": "15:00",
    "endereco": "AVENIDA ANTONIO ABRAHAO CARAM, 1001",
    "bairro": "São Luíz",
    "observacoes": "Carnaval 2026",
    "latitude": -19.8659115,
    "longitude": -43.9710434
  },
  {
    "id": "19255",
    "nome": "BLOCO UNIDOS DO PARQUE IZIDORA",
    "data": "2026-02-14",
    "horario": "16:00",
    "endereco": "RUA MARCOS DONATO DE LIMA, 395",
    "bairro": "Ribeiro de Abreu",
    "observacoes": "Carnaval 2026",
    "latitude": -19.8191432,
    "longitude": -43.9025326
  },
  {
    "id": "18231",
    "nome": "BLOCO DO IMPROVISO ",
    "data": "2026-02-14",
    "horario": "16:00",
    "endereco": "RUA MAESTRO DELE ANDRADE, 901",
    "bairro": "Santa Efigênia",
    "observacoes": "Carnaval 2026",
    "latitude": -19.9259463,
    "longitude": -43.9134285
  },
  {
    "id": "19025",
    "nome": "CONEXÃO AFRICAN BEAT",
    "data": "2026-02-14",
    "horario": "16:00",
    "endereco": "RUA GONCALVES DIAS, 1364",
    "bairro": "Boa Viagem",
    "observacoes": "Carnaval 2026",
    "latitude": -19.9319001,
    "longitude": -43.9344745
  },
  {
    "id": "17980",
    "nome": "AS BENZEDEIRAS ",
    "data": "2026-02-14",
    "horario": "16:00",
    "endereco": "RUA JOAO RAMALHO, 122",
    "bairro": "Glória",
    "observacoes": "Carnaval 2026",
    "latitude": -19.9000296,
    "longitude": -44.0115157
  },
  {
    "id": "18730",
    "nome": "BLOCO OFICINA TAMBOLELÊ",
    "data": "2026-02-14",
    "horario": "16:00",
    "endereco": "RUA SAO COSME, 136",
    "bairro": "Novo Glória",
    "observacoes": "Carnaval 2026",
    "latitude": -19.9069755,
    "longitude": -44.0134268
  },
  {
    "id": "18747",
    "nome": "BLOCO DA BÔTA",
    "data": "2026-02-14",
    "horario": "16:00",
    "endereco": "RUA TEOFILO OTONI, 591",
    "bairro": "Carlos Prates",
    "observacoes": "Carnaval 2026",
    "latitude": -19.9135497,
    "longitude": -43.9555556
  },
  {
    "id": "18039",
    "nome": "BAIANIDADE BELO E MINAS COM BAHIA",
    "data": "2026-02-14",
    "horario": "17:00",
    "endereco": "AVENIDA DOS ENGENHEIROS, 578",
    "bairro": "Castelo",
    "observacoes": "Carnaval 2026",
    "latitude": -19.8919147,
    "longitude": -43.9975537
  },
  {
    "id": "18675",
    "nome": "BLOCO XÔ PRECONCEITO MEU NOME É FELICIDADE ",
    "data": "2026-02-14",
    "horario": "17:00",
    "endereco": "PRACA RUI BARBOSA, 104",
    "bairro": "Centro",
    "observacoes": "Carnaval 2026",
    "latitude": -19.9193308,
    "longitude": -43.9403488
  },
  {
    "id": "18153",
    "nome": "BLOCO RASTAXÉ",
    "data": "2026-02-14",
    "horario": "17:00",
    "endereco": "RUA SETE DE ABRIL, 490",
    "bairro": "Esplanada",
    "observacoes": "Carnaval 2026",
    "latitude": -19.9060684,
    "longitude": -43.9088456
  },
  {
    "id": "18829",
    "nome": "BLOCO ANJOS DO CÉU",
    "data": "2026-02-14",
    "horario": "17:30",
    "endereco": "RUA ANTONIO GIAROLA, 51",
    "bairro": "Céu Azul",
    "observacoes": "Carnaval 2026",
    "latitude": -19.8172912,
    "longitude": -43.9962861
  },
  {
    "id": "18870",
    "nome": "BLOCO DO CORRE! CARNAVAL + CORRIDA",
    "data": "2026-02-15",
    "horario": "07:00",
    "endereco": "ALAMEDA DAS PALMEIRAS, 847",
    "bairro": "São José",
    "observacoes": "Carnaval 2026",
    "latitude": -20.2523437,
    "longitude": -43.7895008
  },
  {
    "id": "18555",
    "nome": "PENA DE PAVÃO DE KRISHNA",
    "data": "2026-02-15",
    "horario": "08:00",
    "endereco": "RUA JOAO DAS CHAGAS, 42",
    "bairro": "União",
    "observacoes": "Carnaval 2026",
    "latitude": -19.8809274,
    "longitude": -43.9234575
  },
  {
    "id": "18879",
    "nome": "LAGUM NA AVENIDA ",
    "data": "2026-02-15",
    "horario": "08:00",
    "endereco": "RUA SANTA RITA DURAO, 1216",
    "bairro": "Savassi",
    "observacoes": "Carnaval 2026",
    "latitude": -19.9346379,
    "longitude": -43.9339743
  },
  {
    "id": "18982",
    "nome": "BLOCO DE PÍFANOS BH",
    "data": "2026-02-15",
    "horario": "08:00",
    "endereco": "RUA MARMORE, 157",
    "bairro": "Santa Tereza",
    "observacoes": "Carnaval 2026",
    "latitude": -19.9162948,
    "longitude": -43.9182816
  },
  {
    "id": "18449",
    "nome": "BLOCO DA MARTINHA",
    "data": "2026-02-15",
    "horario": "08:30",
    "endereco": "RUA DOS ECONOMISTAS, 411",
    "bairro": "Alípio de Melo",
    "observacoes": "Carnaval 2026",
    "latitude": -19.8890455,
    "longitude": -44.0053682
  },
  {
    "id": "18113",
    "nome": "BLOCO FILHOS DA PUC MG",
    "data": "2026-02-15",
    "horario": "09:00",
    "endereco": "AVENIDA GETULIO VARGAS, 820",
    "bairro": "Savassi",
    "observacoes": "Carnaval 2026",
    "latitude": -19.9355834,
    "longitude": -43.9312182
  },
  {
    "id": "18220",
    "nome": "MAÇA DO AMOR ",
    "data": "2026-02-15",
    "horario": "09:00",
    "endereco": "RUA FERNANDES TOURINHO, 515",
    "bairro": "Savassi",
    "observacoes": "Carnaval 2026",
    "latitude": -19.9386241,
    "longitude": -43.9392579
  },
  {
    "id": "18732",
    "nome": "BLOCO CILADA",
    "data": "2026-02-15",
    "horario": "09:00",
    "endereco": "RUA MANOEL DOS REIS, 70",
    "bairro": "Jaraguá",
    "observacoes": "Carnaval 2026",
    "latitude": -19.8546058,
    "longitude": -43.9520492
  },
  {
    "id": "18809",
    "nome": "99 NÃO É 100",
    "data": "2026-02-15",
    "horario": "09:00",
    "endereco": "AVENIDA AUGUSTO DE LIMA, 1845",
    "bairro": "Barro Preto",
    "observacoes": "Carnaval 2026",
    "latitude": -19.9220472,
    "longitude": -43.9476699
  },
  {
    "id": "18919",
    "nome": "OS BATERAS",
    "data": "2026-02-15",
    "horario": "09:00",
    "endereco": "AVENIDA SARAMENHA, 1432",
    "bairro": "Guarani",
    "observacoes": "Carnaval 2026",
    "latitude": -19.8433654,
    "longitude": -43.9185982
  },
  {
    "id": "19240",
    "nome": "RAGA MOFE",
    "data": "2026-02-15",
    "horario": "09:00",
    "endereco": "RUA FREI ORLANDO, 1023",
    "bairro": "Caiçaras",
    "observacoes": "Carnaval 2026",
    "latitude": -19.9045097,
    "longitude": -43.9622169
  },
  {
    "id": "19029",
    "nome": "ASSOCIACAO CULTURAL ARAUTOS DO GUETO",
    "data": "2026-02-15",
    "horario": "09:00",
    "endereco": "AVENIDA SILVA LOBO, 1336",
    "bairro": "Nova Granada",
    "observacoes": "Carnaval 2026",
    "latitude": -19.9403663,
    "longitude": -43.9672161
  },
  {
    "id": "19219",
    "nome": "BROCOLIS",
    "data": "2026-02-15",
    "horario": "09:00",
    "endereco": "RUA BRAGANCA, 3",
    "bairro": "Coqueiros",
    "observacoes": "Carnaval 2026",
    "latitude": -19.9016406,
    "longitude": -44.0239021
  },
  {
    "id": "19151",
    "nome": "PÉ DE FEIJÃO ",
    "data": "2026-02-15",
    "horario": "09:00",
    "endereco": "RUA IBITINGA, 7",
    "bairro": "Concórdia",
    "observacoes": "Carnaval 2026",
    "latitude": -19.9000395,
    "longitude": -43.9394499
  },
  {
    "id": "18954",
    "nome": "BLOCO PACATO CIDADÃO",
    "data": "2026-02-15",
    "horario": "09:00",
    "endereco": "AVENIDA DOS BANDEIRANTES, 240",
    "bairro": "Sion",
    "observacoes": "Carnaval 2026",
    "latitude": -19.957118,
    "longitude": -43.9321688
  },
  {
    "id": "19289",
    "nome": "BLOCO DA ANISTIA (ANTIGO BLOCO DA PAPUDA)",
    "data": "2026-02-15",
    "horario": "10:00",
    "endereco": "RUA CURITIBA, 2457",
    "bairro": "Lourdes",
    "observacoes": "Carnaval 2026",
    "latitude": -19.9342363,
    "longitude": -43.9454204
  },
  {
    "id": "18369",
    "nome": "BLOCO ROMANTICOS SÃO LOUCOS",
    "data": "2026-02-15",
    "horario": "10:00",
    "endereco": "RUA MARMORE, 189",
    "bairro": "Santa Tereza",
    "observacoes": "Carnaval 2026",
    "latitude": -19.9162948,
    "longitude": -43.9182816
  },
  {
    "id": "18737",
    "nome": "BLOCO DO BATIZA",
    "data": "2026-02-15",
    "horario": "10:00",
    "endereco": "RUA MUCURI, 331",
    "bairro": "Floresta",
    "observacoes": "Carnaval 2026",
    "latitude": -19.9197873,
    "longitude": -43.928219
  },
  {
    "id": "18750",
    "nome": "TODO MUNDO CABE NO MUNDO",
    "data": "2026-02-15",
    "horario": "10:00",
    "endereco": "RUA PIAUI, 644",
    "bairro": "Santa Efigênia",
    "observacoes": "Carnaval 2026",
    "latitude": -19.9248171,
    "longitude": -43.9249863
  },
  {
    "id": "18691",
    "nome": "BLOCO AFRO-PERIFÉRICO ORISAMBA ",
    "data": "2026-02-15",
    "horario": "10:00",
    "endereco": "RUA ITAPECERICA, 321",
    "bairro": "Lagoinha",
    "observacoes": "Carnaval 2026",
    "latitude": -19.9085242,
    "longitude": -43.9441403
  },
  {
    "id": "18110",
    "nome": "CENÁRIO KIDS",
    "data": "2026-02-15",
    "horario": "11:00",
    "endereco": "RUA MICHEL JEHA, 16",
    "bairro": "São Bento",
    "observacoes": "Carnaval 2026",
    "latitude": -19.9539087,
    "longitude": -43.9488617
  },
  {
    "id": "18001",
    "nome": "BLOCO GALO BURITIS",
    "data": "2026-02-15",
    "horario": "11:00",
    "endereco": "RUA HENRIQUE BADARO PORTUGAL, 143",
    "bairro": "Buritis",
    "observacoes": "Carnaval 2026",
    "latitude": -19.9744485,
    "longitude": -43.9759493
  },
  {
    "id": "18993",
    "nome": "BLOQUINHO MAIS AMOR",
    "data": "2026-02-15",
    "horario": "12:00",
    "endereco": "AVENIDA AFONSO PENA, 4405",
    "bairro": "Serra",
    "observacoes": "Carnaval 2026",
    "latitude": -19.9450147,
    "longitude": -43.9224396
  },
  {
    "id": "18370",
    "nome": "BAIANEIROS",
    "data": "2026-02-15",
    "horario": "12:00",
    "endereco": "AVENIDA ALTAMIRO AVELINO SOARES, 78",
    "bairro": "Castelo",
    "observacoes": "Carnaval 2026",
    "latitude": -19.8801555,
    "longitude": -44.0024485
  },
  {
    "id": "18943",
    "nome": "BLOCO DA JUJU PAULINE",
    "data": "2026-02-15",
    "horario": "12:00",
    "endereco": "AVENIDA FLEMING, 710",
    "bairro": "Ouro Preto",
    "observacoes": "Carnaval 2026",
    "latitude": -19.8645045,
    "longitude": -43.9831388
  },
  {
    "id": "18028",
    "nome": "BLOCO DE RUA INOCENTES DE SANTA TEREZA",
    "data": "2026-02-15",
    "horario": "12:00",
    "endereco": "RUA MARMORE, 169",
    "bairro": "Santa Tereza",
    "observacoes": "Carnaval 2026",
    "latitude": -19.9162948,
    "longitude": -43.9182816
  },
  {
    "id": "18043",
    "nome": "BLOCO UBUNTU – O SOM DOS POVOS",
    "data": "2026-02-15",
    "horario": "12:00",
    "endereco": "RUA CECILDES MOREIRA DE FARIA, 100",
    "bairro": "Nova Gameleira",
    "observacoes": "Carnaval 2026",
    "latitude": -19.9404875,
    "longitude": -43.9939089
  },
  {
    "id": "19054",
    "nome": "BLOQUIM DUBEM",
    "data": "2026-02-15",
    "horario": "12:00",
    "endereco": "RUA DEPUTADO BERNARDINO DE SENA FIGUEIREDO, 1022",
    "bairro": "Cidade Nova",
    "observacoes": "Carnaval 2026",
    "latitude": -19.8874701,
    "longitude": -43.9242173
  },
  {
    "id": "18073",
    "nome": "UNIDOS DO SAMBA QUEIXINHO",
    "data": "2026-02-15",
    "horario": "12:30",
    "endereco": "RUA DA BAHIA, 2178",
    "bairro": "Lourdes",
    "observacoes": "Carnaval 2026",
    "latitude": -19.9307295,
    "longitude": -43.9390996
  },
  {
    "id": "19063",
    "nome": "BLOCO SAMBA DE CATARINA",
    "data": "2026-02-15",
    "horario": "13:00",
    "endereco": "AVENIDA SINFRONIO BROCHADO, 1170",
    "bairro": "Barreiro",
    "observacoes": "Carnaval 2026",
    "latitude": -19.9772293,
    "longitude": -44.0212105
  },
  {
    "id": "19357",
    "nome": "BEAGÁ NA FOLIA - DESMANTELO DO NATHAN",
    "data": "2026-02-15",
    "horario": "13:00",
    "endereco": "AVENIDA AFONSO PENA, 792",
    "bairro": "Centro",
    "observacoes": "Carnaval 2026",
    "latitude": -19.9255492,
    "longitude": -43.934533
  },
  {
    "id": "19529",
    "nome": "BLOCO MARINADA ",
    "data": "2026-02-15",
    "horario": "13:00",
    "endereco": "AVENIDA ANTONIO ABRAHAO CARAM, 1001",
    "bairro": "São Luíz",
    "observacoes": "Carnaval 2026",
    "latitude": -19.8659115,
    "longitude": -43.9710434
  },
  {
    "id": "18490",
    "nome": "ABRE QUE TÔ PASSANÚ",
    "data": "2026-02-15",
    "horario": "13:00",
    "endereco": "PRACA MARINO MENDES CAMPOS, 1078",
    "bairro": "Anchieta",
    "observacoes": "Carnaval 2026",
    "latitude": -19.9490187,
    "longitude": -43.9269053
  },
  {
    "id": "18450",
    "nome": "BLOCO SHOW ",
    "data": "2026-02-15",
    "horario": "13:00",
    "endereco": "PRACA DA LIBERDADE, 200",
    "bairro": "Savassi",
    "observacoes": "Carnaval 2026",
    "latitude": -19.9318363,
    "longitude": -43.9386702
  },
  {
    "id": "18690",
    "nome": "BLOCO DOS SUPER HÉROIS",
    "data": "2026-02-15",
    "horario": "13:00",
    "endereco": "RUA ARAGUARI, 1561",
    "bairro": "Santo Agostinho",
    "observacoes": "Carnaval 2026",
    "latitude": -19.9267386,
    "longitude": -43.9503573
  },
  {
    "id": "18931",
    "nome": "TICO TICO SERRA COPO",
    "data": "2026-02-15",
    "horario": "13:00",
    "endereco": "RUA EURO LUIS ARANTES, 126",
    "bairro": "Novo Aarão Reis",
    "observacoes": "Carnaval 2026",
    "latitude": -19.8405163,
    "longitude": -43.9077224
  },
  {
    "id": "18920",
    "nome": "BLOCO DO JILÓ",
    "data": "2026-02-15",
    "horario": "13:00",
    "endereco": "RUA CONTAGEM, 823",
    "bairro": "Santa Inês",
    "observacoes": "Carnaval 2026",
    "latitude": -19.8815577,
    "longitude": -43.9082171
  },
  {
    "id": "18988",
    "nome": "BLOCO AFRODIÁSPORA",
    "data": "2026-02-15",
    "horario": "13:00",
    "endereco": "RUA DOS GUAJAJARAS, 1446",
    "bairro": "Barro Preto",
    "observacoes": "Carnaval 2026",
    "latitude": -19.9227122,
    "longitude": -43.9506308
  },
  {
    "id": "18961",
    "nome": "FOFOCA DE CARIMBÓ",
    "data": "2026-02-15",
    "horario": "13:00",
    "endereco": "AVENIDA DOS ANDRADAS, 800",
    "bairro": "Centro",
    "observacoes": "Carnaval 2026",
    "latitude": -19.9216294,
    "longitude": -43.9331831
  },
  {
    "id": "18372",
    "nome": "KOLA EM MIM QUE CÊ BRILHA",
    "data": "2026-02-15",
    "horario": "13:30",
    "endereco": "RUA OESTE, 62",
    "bairro": "Calafate",
    "observacoes": "Carnaval 2026",
    "latitude": -19.9217945,
    "longitude": -43.9677897
  },
  {
    "id": "18967",
    "nome": "BLOCO DEMORÔ ",
    "data": "2026-02-15",
    "horario": "14:00",
    "endereco": "AVENIDA MAGENTA, 571",
    "bairro": "Vitória",
    "observacoes": "Carnaval 2026",
    "latitude": -19.8610828,
    "longitude": -43.8867322
  },
  {
    "id": "18900",
    "nome": "CARNA15",
    "data": "2026-02-15",
    "horario": "14:00",
    "endereco": "RUA JORNALISTA GERALDO RESENDE, 474",
    "bairro": "Serrano",
    "observacoes": "Carnaval 2026",
    "latitude": -19.8845619,
    "longitude": -44.0142518
  },
  {
    "id": "19349",
    "nome": "BLOCO DA GRAÇA ",
    "data": "2026-02-15",
    "horario": "14:00",
    "endereco": "RUA SILVEIRA, 530",
    "bairro": "Graça",
    "observacoes": "Carnaval 2026",
    "latitude": -19.8999647,
    "longitude": -43.9287398
  },
  {
    "id": "18981",
    "nome": "BLOCO DU COCO",
    "data": "2026-02-15",
    "horario": "14:00",
    "endereco": "RUA BELMIRO BRAGA, 1020",
    "bairro": "Caiçara-Adelaide",
    "observacoes": "Carnaval 2026",
    "latitude": -19.9064175,
    "longitude": -43.9753901
  },
  {
    "id": "18897",
    "nome": "BLOCO DO BIGODE ",
    "data": "2026-02-15",
    "horario": "14:00",
    "endereco": "AVENIDA AMERICO VESPUCIO, 965",
    "bairro": "Aparecida",
    "observacoes": "Carnaval 2026",
    "latitude": -19.8913875,
    "longitude": -43.9571467
  },
  {
    "id": "18745",
    "nome": "BLOCO AMIGOS DO BAZIN",
    "data": "2026-02-15",
    "horario": "14:00",
    "endereco": "PRACA PEDRO CELSO ABREU, 1053",
    "bairro": "Dona Clara",
    "observacoes": "Carnaval 2026",
    "latitude": -19.8585718,
    "longitude": -43.9404593
  },
  {
    "id": "18853",
    "nome": "FOLIA DO TAVINHO",
    "data": "2026-02-15",
    "horario": "14:00",
    "endereco": "RUA ALBERTO CINTRA, 47",
    "bairro": "União",
    "observacoes": "Carnaval 2026",
    "latitude": -19.8809841,
    "longitude": -43.9283326
  },
  {
    "id": "18736",
    "nome": "BLOCO DO MAMÁ",
    "data": "2026-02-15",
    "horario": "14:00",
    "endereco": "RUA LIDIO LUNARDI, 83",
    "bairro": "Maria Virgínia",
    "observacoes": "Carnaval 2026",
    "latitude": -19.8687311,
    "longitude": -43.9337585
  },
  {
    "id": "18731",
    "nome": "BLOCO FERVEÇÃO",
    "data": "2026-02-15",
    "horario": "14:00",
    "endereco": "RUA SERGIPE, 1199",
    "bairro": "Savassi",
    "observacoes": "Carnaval 2026",
    "latitude": -19.9369685,
    "longitude": -43.9379297
  },
  {
    "id": "18735",
    "nome": "BLOCO VOU ALI E VOLTO",
    "data": "2026-02-15",
    "horario": "14:00",
    "endereco": "PRACA CAPELA NOVA, 318",
    "bairro": "Padre Eustáquio",
    "observacoes": "Carnaval 2026",
    "latitude": -19.9143045,
    "longitude": -43.979356
  },
  {
    "id": "19350",
    "nome": "CARNALESTE",
    "data": "2026-02-15",
    "horario": "14:00",
    "endereco": "RUA SILVA ALVARENGA, 583",
    "bairro": "São Geraldo",
    "observacoes": "Carnaval 2026",
    "latitude": -19.8948487,
    "longitude": -43.898423
  },
  {
    "id": "18653",
    "nome": "BAILE DA SERRA",
    "data": "2026-02-15",
    "horario": "14:00",
    "endereco": "AVENIDA MEM DE SA, 1833",
    "bairro": "Fazendinha",
    "observacoes": "Carnaval 2026",
    "latitude": -19.9322299,
    "longitude": -43.9068592
  },
  {
    "id": "18669",
    "nome": "É O AMÔ",
    "data": "2026-02-15",
    "horario": "14:00",
    "endereco": "AVENIDA DOS ANDRADAS, 3560",
    "bairro": "Pompéia",
    "observacoes": "Carnaval 2026",
    "latitude": -19.9106515,
    "longitude": -43.9090343
  },
  {
    "id": "18568",
    "nome": "AS GRANDES FIGURAS",
    "data": "2026-02-15",
    "horario": "14:00",
    "endereco": "RUA JOAQUIM ZENIR LEITE, 431",
    "bairro": "Paraíso",
    "observacoes": "Carnaval 2026",
    "latitude": -19.9232554,
    "longitude": -43.9022517
  },
  {
    "id": "18492",
    "nome": "JÂNGALOVE",
    "data": "2026-02-15",
    "horario": "14:00",
    "endereco": "RUA OUTONO, 559",
    "bairro": "Cruzeiro",
    "observacoes": "Carnaval 2026",
    "latitude": -19.9428826,
    "longitude": -43.9294365
  },
  {
    "id": "18314",
    "nome": "AFOXÉ ILÊ ODARA",
    "data": "2026-02-15",
    "horario": "14:00",
    "endereco": "RUA SAO CLEMENTE, 1132",
    "bairro": "Aparecida",
    "observacoes": "Carnaval 2026",
    "latitude": -19.8916164,
    "longitude": -43.9536011
  },
  {
    "id": "18162",
    "nome": "FURACÃO TREMBASE",
    "data": "2026-02-15",
    "horario": "14:00",
    "endereco": "AVENIDA ASSIS CHATEAUBRIAND, 77",
    "bairro": "Floresta",
    "observacoes": "Carnaval 2026",
    "latitude": -19.9159588,
    "longitude": -43.9274262
  },
  {
    "id": "18275",
    "nome": "AFOXÉ BANDARERÊ",
    "data": "2026-02-15",
    "horario": "14:00",
    "endereco": "PRACA MEXICO, 211",
    "bairro": "Concórdia",
    "observacoes": "Carnaval 2026",
    "latitude": -19.9020498,
    "longitude": -43.9358187
  },
  {
    "id": "19168",
    "nome": "TREM BÃO D+",
    "data": "2026-02-15",
    "horario": "14:00",
    "endereco": "RUA ESPIRITO SANTO, 1676",
    "bairro": "Lourdes",
    "observacoes": "Carnaval 2026",
    "latitude": -19.929321,
    "longitude": -43.940098
  },
  {
    "id": "18014",
    "nome": "BLOCO DA ALCOVA LIBERTINA",
    "data": "2026-02-15",
    "horario": "14:00",
    "endereco": "RUA CAMILO PRATES, 390",
    "bairro": "União",
    "observacoes": "Carnaval 2026",
    "latitude": -19.8821063,
    "longitude": -43.9190119
  },
  {
    "id": "18010",
    "nome": "BLOCO DA SAÚDE",
    "data": "2026-02-15",
    "horario": "14:00",
    "endereco": "RUA MARMORE, 161",
    "bairro": "Santa Tereza",
    "observacoes": "Carnaval 2026",
    "latitude": -19.9162948,
    "longitude": -43.9182816
  },
  {
    "id": "18129",
    "nome": "BLOCO ONCETÁ",
    "data": "2026-02-15",
    "horario": "14:00",
    "endereco": "AVENIDA GENERAL OLIMPIO MOURAO FILHO, 750",
    "bairro": "Itapoã",
    "observacoes": "Carnaval 2026",
    "latitude": -19.8334652,
    "longitude": -43.9578483
  },
  {
    "id": "18159",
    "nome": "BLOCO MICARETEIROS",
    "data": "2026-02-15",
    "horario": "14:00",
    "endereco": "AVENIDA GETULIO VARGAS, 800",
    "bairro": "Savassi",
    "observacoes": "Carnaval 2026",
    "latitude": -19.9354575,
    "longitude": -43.9310814
  },
  {
    "id": "18972",
    "nome": "BLOCO AVULSA",
    "data": "2026-02-15",
    "horario": "15:00",
    "endereco": "RUA OURO PRETO, 368",
    "bairro": "Barro Preto",
    "observacoes": "Carnaval 2026",
    "latitude": -19.9237467,
    "longitude": -43.9509107
  },
  {
    "id": "19279",
    "nome": "FESTA DE CRENTE",
    "data": "2026-02-15",
    "horario": "15:00",
    "endereco": "AVENIDA GASTAO DEMETRIO MAIA, 2201",
    "bairro": "Floramar",
    "observacoes": "Carnaval 2026",
    "latitude": -19.835002,
    "longitude": -43.933082
  },
  {
    "id": "18855",
    "nome": "BLOCO PIPIXO",
    "data": "2026-02-15",
    "horario": "15:00",
    "endereco": "AVENIDA SARAMENHA, 1923",
    "bairro": "Guarani",
    "observacoes": "Carnaval 2026",
    "latitude": -19.8433654,
    "longitude": -43.9185982
  },
  {
    "id": "18429",
    "nome": "BLOCO QUEM EU QUERO NÃO ME QUER",
    "data": "2026-02-15",
    "horario": "15:00",
    "endereco": "RUA SENADOR LIMA GUIMARAES, 251",
    "bairro": "Estoril",
    "observacoes": "Carnaval 2026",
    "latitude": -19.9703392,
    "longitude": -43.9597617
  },
  {
    "id": "17975",
    "nome": "ELEGANZA",
    "data": "2026-02-15",
    "horario": "15:00",
    "endereco": "AVENIDA AUGUSTO DE LIMA, 1845",
    "bairro": "Barro Preto",
    "observacoes": "Carnaval 2026",
    "latitude": -19.9220472,
    "longitude": -43.9476699
  },
  {
    "id": "18763",
    "nome": "CARNAVOVÓ",
    "data": "2026-02-15",
    "horario": "15:00",
    "endereco": "RUA TENENTE MARINO FREIRE, 270",
    "bairro": "Maria Helena",
    "observacoes": "Carnaval 2026",
    "latitude": -19.801897,
    "longitude": -43.9936776
  },
  {
    "id": "19312",
    "nome": "TROPA DO 7LC",
    "data": "2026-02-15",
    "horario": "15:00",
    "endereco": "RUA ELISIO DE BRITO, 760",
    "bairro": "São Geraldo",
    "observacoes": "Carnaval 2026",
    "latitude": -19.8992458,
    "longitude": -43.8976505
  },
  {
    "id": "18912",
    "nome": "BLOCO CARNAVALESCO, CULTURAL E RECREATIVO VEJO FLORES EM VOCÊ",
    "data": "2026-02-15",
    "horario": "15:00",
    "endereco": "RUA JORGE ANTONIO NASSAR, 289",
    "bairro": "Letícia",
    "observacoes": "Carnaval 2026",
    "latitude": -19.8054159,
    "longitude": -43.9815908
  },
  {
    "id": "19269",
    "nome": "UNIDOS DA BEIRA LINHA'",
    "data": "2026-02-15",
    "horario": "16:00",
    "endereco": "RUA ANTONIO MARIANO DE ABREU, 240",
    "bairro": "Paulo VI",
    "observacoes": "Carnaval 2026",
    "latitude": -19.8366663,
    "longitude": -43.8913388
  },
  {
    "id": "18019",
    "nome": "CHIC XIQUE FORROZEIRROS",
    "data": "2026-02-15",
    "horario": "16:00",
    "endereco": "RUA VERSILIA, 50",
    "bairro": "Bandeirantes",
    "observacoes": "Carnaval 2026",
    "latitude": -19.8601129,
    "longitude": -43.9817822
  },
  {
    "id": "18024",
    "nome": "BLOCO DA INSANIDADE",
    "data": "2026-02-15",
    "horario": "16:00",
    "endereco": "AVENIDA AFONSO PENA, 4406",
    "bairro": "Cruzeiro",
    "observacoes": "Carnaval 2026",
    "latitude": -19.9472705,
    "longitude": -43.9211589
  },
  {
    "id": "18894",
    "nome": "VEMKÁVÊ ",
    "data": "2026-02-15",
    "horario": "16:00",
    "endereco": "RUA INES GLANSMAN, 168",
    "bairro": "Ribeiro de Abreu",
    "observacoes": "Carnaval 2026",
    "latitude": -19.8288295,
    "longitude": -43.9004313
  },
  {
    "id": "18762",
    "nome": "BLOCO DA LÍNGUA ",
    "data": "2026-02-15",
    "horario": "16:00",
    "endereco": "RUA TIGRE, 8",
    "bairro": "São Salvador",
    "observacoes": "Carnaval 2026",
    "latitude": -19.8934385,
    "longitude": -44.0126933
  },
  {
    "id": "19121",
    "nome": "AMIGOS DA PPL BH ",
    "data": "2026-02-15",
    "horario": "16:00",
    "endereco": "RUA POPULAR, 26",
    "bairro": "Aparecida",
    "observacoes": "Carnaval 2026",
    "latitude": -19.8986955,
    "longitude": -43.9482252
  },
  {
    "id": "18272",
    "nome": "BLOCO TO DE ALTAS",
    "data": "2026-02-15",
    "horario": "17:00",
    "endereco": "AVENIDA FLEMING, 1200",
    "bairro": "Ouro Preto",
    "observacoes": "Carnaval 2026",
    "latitude": -19.8645045,
    "longitude": -43.9831388
  },
  {
    "id": "18168",
    "nome": "OS MENINOS DA MEIA-NOITE",
    "data": "2026-02-15",
    "horario": "17:00",
    "endereco": "PRACA SANTA RITA, 130",
    "bairro": "Esplanada",
    "observacoes": "Carnaval 2026",
    "latitude": -19.9067648,
    "longitude": -43.9071926
  },
  {
    "id": "19227",
    "nome": "SAMBA DO ARCO ",
    "data": "2026-02-16",
    "horario": "08:00",
    "endereco": "PRACA MEXICO, 211",
    "bairro": "Concórdia",
    "observacoes": "Carnaval 2026",
    "latitude": -19.9020498,
    "longitude": -43.9358187
  },
  {
    "id": "19128",
    "nome": "BLOCO MALDITO",
    "data": "2026-02-16",
    "horario": "08:00",
    "endereco": "RUA DAVID CAMPISTA, 42",
    "bairro": "Floresta",
    "observacoes": "Carnaval 2026",
    "latitude": -19.9161767,
    "longitude": -43.9288118
  },
  {
    "id": "19210",
    "nome": "BAIANAS OZADAS",
    "data": "2026-02-16",
    "horario": "08:00",
    "endereco": "AVENIDA AFONSO PENA, 996",
    "bairro": "Centro",
    "observacoes": "Carnaval 2026",
    "latitude": -19.9218092,
    "longitude": -43.937104
  },
  {
    "id": "18093",
    "nome": "BLOCO FILHOS DA PUC MG",
    "data": "2026-02-16",
    "horario": "09:00",
    "endereco": "AVENIDA AFONSO PENA, 1620",
    "bairro": "Boa Viagem",
    "observacoes": "Carnaval 2026",
    "latitude": -19.9276302,
    "longitude": -43.9334377
  },
  {
    "id": "18563",
    "nome": "RESENHA AMIGOS DO EDGAR",
    "data": "2026-02-16",
    "horario": "09:00",
    "endereco": "PRACA SANTA RITA, 500",
    "bairro": "Esplanada",
    "observacoes": "Carnaval 2026",
    "latitude": -19.9067648,
    "longitude": -43.9071926
  },
  {
    "id": "18711",
    "nome": "BLOCO DO MALVADÃO",
    "data": "2026-02-16",
    "horario": "09:00",
    "endereco": "RUA SERGIPE, 780",
    "bairro": "Savassi",
    "observacoes": "Carnaval 2026",
    "latitude": -19.9330149,
    "longitude": -43.9369848
  },
  {
    "id": "18219",
    "nome": "PÃO DE QUEIJO - XODÓ DE MINAS ",
    "data": "2026-02-16",
    "horario": "09:00",
    "endereco": "AVENIDA OLEGARIO MACIEL, 1704",
    "bairro": "Santo Agostinho",
    "observacoes": "Carnaval 2026",
    "latitude": -19.9290608,
    "longitude": -43.9472444
  },
  {
    "id": "18835",
    "nome": "DAQUELE JEITO",
    "data": "2026-02-16",
    "horario": "09:00",
    "endereco": "RUA DA BAHIA, 1764",
    "bairro": "Lourdes",
    "observacoes": "Carnaval 2026",
    "latitude": -19.9305583,
    "longitude": -43.9391311
  },
  {
    "id": "18513",
    "nome": "BLOCO DA ANNINHA",
    "data": "2026-02-16",
    "horario": "09:00",
    "endereco": "AVENIDA ALTAMIRO AVELINO SOARES, 110",
    "bairro": "Castelo",
    "observacoes": "Carnaval 2026",
    "latitude": -19.8801555,
    "longitude": -44.0024485
  },
  {
    "id": "18211",
    "nome": "MENINOS DO MORRO",
    "data": "2026-02-16",
    "horario": "09:00",
    "endereco": "RUA MARMORE, 184",
    "bairro": "Santa Tereza",
    "observacoes": "Carnaval 2026",
    "latitude": -19.9162948,
    "longitude": -43.9182816
  },
  {
    "id": "18936",
    "nome": "BLOCO CORTE DEVASSA",
    "data": "2026-02-16",
    "horario": "09:00",
    "endereco": "RUA DOS TABAIARES, 84",
    "bairro": "Floresta",
    "observacoes": "Carnaval 2026",
    "latitude": -19.9180301,
    "longitude": -43.9323098
  },
  {
    "id": "18873",
    "nome": "EBBLOCO",
    "data": "2026-02-16",
    "horario": "09:30",
    "endereco": "RUA VICENTE RISOLA, 33",
    "bairro": "Santa Inês",
    "observacoes": "Carnaval 2026",
    "latitude": -19.8828976,
    "longitude": -43.9096206
  },
  {
    "id": "18031",
    "nome": "BLOCO XIBIUZINHO",
    "data": "2026-02-16",
    "horario": "09:30",
    "endereco": "AVENIDA DOS ENGENHEIROS, 295",
    "bairro": "Alípio de Melo",
    "observacoes": "Carnaval 2026",
    "latitude": -19.8902904,
    "longitude": -44.0007213
  },
  {
    "id": "18007",
    "nome": "BLOCO BELORINHO",
    "data": "2026-02-16",
    "horario": "10:00",
    "endereco": "AVENIDA GETULIO VARGAS, 1503",
    "bairro": "Savassi",
    "observacoes": "Carnaval 2026",
    "latitude": -19.938985,
    "longitude": -43.9367355
  },
  {
    "id": "19016",
    "nome": "UNIDOS DO BARRO PRETO",
    "data": "2026-02-16",
    "horario": "10:00",
    "endereco": "AVENIDA AUGUSTO DE LIMA, 1826",
    "bairro": "Barro Preto",
    "observacoes": "Carnaval 2026",
    "latitude": -19.9220472,
    "longitude": -43.9476699
  },
  {
    "id": "19225",
    "nome": "BLOCO DA BIA ",
    "data": "2026-02-16",
    "horario": "10:00",
    "endereco": "AVENIDA GUARAPARI, 1325",
    "bairro": "Santa Amélia",
    "observacoes": "Carnaval 2026",
    "latitude": -19.8388542,
    "longitude": -43.977372
  },
  {
    "id": "19234",
    "nome": "BEAGÁ NA FOLIA - SERTANEJINHO DO TELÓ",
    "data": "2026-02-16",
    "horario": "10:00",
    "endereco": "AVENIDA ANTONIO ABRAHAO CARAM, 1001",
    "bairro": "São Luíz",
    "observacoes": "Carnaval 2026",
    "latitude": -19.8659115,
    "longitude": -43.9710434
  },
  {
    "id": "19006",
    "nome": "BLOCO REI ",
    "data": "2026-02-16",
    "horario": "10:30",
    "endereco": "RUA GOIAS, 41",
    "bairro": "Centro",
    "observacoes": "Carnaval 2026",
    "latitude": -19.9259192,
    "longitude": -43.9354585
  },
  {
    "id": "17979",
    "nome": "BLOCO NAO ACREDITO QUE TE BEIJEI ",
    "data": "2026-02-16",
    "horario": "10:30",
    "endereco": "",
    "bairro": "",
    "observacoes": "Carnaval 2026",
    "latitude": -19.9227318,
    "longitude": -43.9450948
  },
  {
    "id": "18560",
    "nome": "BOM BLOQUIU",
    "data": "2026-02-16",
    "horario": "11:00",
    "endereco": "PRACA DA BANDEIRA, 188",
    "bairro": "Comiteco",
    "observacoes": "Carnaval 2026",
    "latitude": -19.9553563,
    "longitude": -43.9215863
  },
  {
    "id": "18944",
    "nome": "ALTAS HORAS O BLOCO",
    "data": "2026-02-16",
    "horario": "11:00",
    "endereco": "RUA ILACIR PEREIRA LIMA, 181",
    "bairro": "Silveira",
    "observacoes": "Carnaval 2026",
    "latitude": -19.8918598,
    "longitude": -43.929371
  },
  {
    "id": "18022",
    "nome": "APUCABLOCO",
    "data": "2026-02-16",
    "horario": "11:00",
    "endereco": "AVENIDA DOM JOSE GASPAR, 599",
    "bairro": "Coração Eucarístico",
    "observacoes": "Carnaval 2026",
    "latitude": -19.9220449,
    "longitude": -43.9892292
  },